zip,lat,lng,city,state_id,state_name,zcta,parent_zcta,population,density,county_fips,county_name,county_weights,county_names_all,county_fips_all,imprecise,military,timezone
601,18.180039999999998,-66.75218000000001,Adjuntas,PR,Puerto Rico,1,,17242,111.4,72001,Adjuntas,"{'72001': 99.43, '72141': 0.57}",Adjuntas|Utuado,72001|72141,False,0,America/Puerto_Rico
602,18.36073,-67.17517,Aguada,PR,Puerto Rico,1,,38442,523.5,72003,Aguada,{'72003': 100},Aguada,72003,False,0,America/Puerto_Rico
603,18.45439,-67.12201999999999,Aguadilla,PR,Puerto Rico,1,,48814,667.9,72005,Aguadilla,{'72005': 100},Aguadilla,72005,False,0,America/Puerto_Rico
606,18.16724,-66.93828,Maricao,PR,Puerto Rico,1,,6437,60.4,72093,Maricao,"{'72093': 94.88, '72121': 1.35, '72153': 3.78}",Maricao|Yauco|Sabana Grande,72093|72153|72121,False,0,America/Puerto_Rico
610,18.29032,-67.12243000000001,Anasco,PR,Puerto Rico,1,,27073,312.0,72011,Añasco,"{'72003': 0.55, '72011': 99.45}",Añasco|Aguada,72011|72003,False,0,America/Puerto_Rico
612,18.40699,-66.70803000000001,Arecibo,PR,Puerto Rico,1,,60303,382.8,72013,Arecibo,"{'72013': 99.89, '72017': 0.11}",Arecibo|Barceloneta,72013|72017,False,0,America/Puerto_Rico
616,18.41753,-66.66814000000001,Bajadero,PR,Puerto Rico,1,,10765,368.9,72013,Arecibo,{'72013': 100},Arecibo,72013,False,0,America/Puerto_Rico
617,18.44124,-66.55917,Barceloneta,PR,Puerto Rico,1,,23974,625.0,72017,Barceloneta,"{'72017': 99.43, '72054': 0.57}",Barceloneta|Florida,72017|72054,False,0,America/Puerto_Rico
622,17.99174,-67.15248000000001,Boqueron,PR,Puerto Rico,1,,6578,104.6,72023,Cabo Rojo,{'72023': 100},Cabo Rojo,72023,False,0,America/Puerto_Rico
623,18.08355,-67.15417,Cabo Rojo,PR,Puerto Rico,1,,42427,437.8,72023,Cabo Rojo,{'72023': 100},Cabo Rojo,72023,False,0,America/Puerto_Rico
624,18.06465,-66.71823,Penuelas,PR,Puerto Rico,1,,22707,234.7,72111,Peñuelas,"{'72111': 92.53, '72113': 7.47}",Peñuelas|Ponce,72111|72113,False,0,America/Puerto_Rico
627,18.419,-66.86033,Camuy,PR,Puerto Rico,1,,32222,292.8,72027,Camuy,{'72027': 100},Camuy,72027,False,0,America/Puerto_Rico
631,18.18555,-66.83327,Castaner,PR,Puerto Rico,1,,1568,177.8,72081,Lares,"{'72001': 32.99, '72081': 67.01}",Lares|Adjuntas,72081|72001,False,0,America/Puerto_Rico
637,18.07982,-66.94274,Sabana Grande,PR,Puerto Rico,1,,22975,283.4,72121,Sabana Grande,"{'72121': 99.56, '72153': 0.44}",Sabana Grande|Yauco,72121|72153,False,0,America/Puerto_Rico
638,18.28904,-66.5151,Ciales,PR,Puerto Rico,1,,16701,110.7,72039,Ciales,"{'72039': 98.27, '72091': 1.73}",Ciales|Manatí,72039|72091,False,0,America/Puerto_Rico
641,18.26408,-66.71376,Utuado,PR,Puerto Rico,1,,27571,128.8,72141,Utuado,"{'72001': 0.21, '72141': 99.79}",Utuado|Adjuntas,72141|72001,False,0,America/Puerto_Rico
646,18.43401,-66.2833,Dorado,PR,Puerto Rico,1,,37494,711.6,72051,Dorado,"{'72051': 99.89, '72143': 0.11}",Dorado|Vega Alta,72051|72143,False,0,America/Puerto_Rico
647,17.96612,-66.94383,Ensenada,PR,Puerto Rico,1,,5643,156.7,72055,Guánica,"{'72055': 98.88, '72079': 1.12}",Guánica|Lajas,72055|72079,False,0,America/Puerto_Rico
650,18.34321,-66.58601,Florida,PR,Puerto Rico,1,,14760,189.7,72054,Florida,"{'72013': 1.51, '72017': 1.91, '72039': 1.13, '72054': 83.61, '72141': 11.84}",Florida|Utuado|Barceloneta|Arecibo|Ciales,72054|72141|72017|72013|72039,False,0,America/Puerto_Rico
652,18.45542,-66.60635,Garrochales,PR,Puerto Rico,1,,3697,263.2,72013,Arecibo,{'72013': 100},Arecibo,72013,False,0,America/Puerto_Rico
653,17.98574,-66.89033,Guanica,PR,Puerto Rico,1,,11140,337.1,72055,Guánica,{'72055': 100},Guánica,72055,False,0,America/Puerto_Rico
656,18.0528,-66.79182,Guayanilla,PR,Puerto Rico,1,,18979,255.9,72059,Guayanilla,{'72059': 100},Guayanilla,72059,False,0,America/Puerto_Rico
659,18.41069,-66.79648,Hatillo,PR,Puerto Rico,1,,40390,387.7,72065,Hatillo,{'72065': 100},Hatillo,72065,False,0,America/Puerto_Rico
660,18.134179999999997,-67.11402,Hormigueros,PR,Puerto Rico,1,,16180,587.0,72067,Hormigueros,{'72067': 100},Hormigueros,72067,False,0,America/Puerto_Rico
662,18.46208,-67.01445,Isabela,PR,Puerto Rico,1,,40290,376.6,72071,Isabela,{'72071': 100},Isabela,72071,False,0,America/Puerto_Rico
664,18.21152,-66.5889,Jayuya,PR,Puerto Rico,1,,14991,142.4,72073,Jayuya,"{'72073': 99.15, '72141': 0.85}",Jayuya|Utuado,72073|72141,False,0,America/Puerto_Rico
667,18.01227,-67.04089,Lajas,PR,Puerto Rico,1,,23590,166.2,72079,Lajas,"{'72079': 98.91, '72125': 1.09}",Lajas|San Germán,72079|72125,False,0,America/Puerto_Rico
669,18.27102,-66.86981999999999,Lares,PR,Puerto Rico,1,,25653,186.6,72081,Lares,"{'72081': 99.22, '72083': 0.62, '72131': 0.16}",Lares|Las Marías|San Sebastián,72081|72083|72131,False,0,America/Puerto_Rico
670,18.23777,-66.98877,Las Marias,PR,Puerto Rico,1,,8498,83.1,72083,Las Marías,"{'72011': 1.12, '72083': 98.88}",Las Marías|Añasco,72083|72011,False,0,America/Puerto_Rico
674,18.421229999999998,-66.49004000000001,Manati,PR,Puerto Rico,1,,39859,381.8,72091,Manatí,"{'72091': 98.49, '72145': 1.51}",Manatí|Vega Baja,72091|72145,False,0,America/Puerto_Rico
676,18.3779,-67.08083,Moca,PR,Puerto Rico,1,,36995,308.6,72099,Moca,"{'72003': 0.51, '72099': 99.49}",Moca|Aguada,72099|72003,False,0,America/Puerto_Rico
677,18.3357,-67.23168000000001,Rincon,PR,Puerto Rico,1,,14311,411.2,72117,Rincón,"{'72003': 0.47, '72117': 99.53}",Rincón|Aguada,72117|72003,False,0,America/Puerto_Rico
678,18.43269,-66.92811999999999,Quebradillas,PR,Puerto Rico,1,,26091,407.5,72115,Quebradillas,"{'72071': 5.36, '72115': 93.17, '72131': 1.47}",Quebradillas|Isabela|San Sebastián,72115|72071|72131,False,0,America/Puerto_Rico
680,18.16327,-67.36195,Mayaguez,PR,Puerto Rico,1,,46395,349.6,72097,Mayagüez,"{'72011': 0.46, '72097': 97.01, '72125': 2.53}",Mayagüez|San Germán|Añasco,72097|72125|72011,False,0,America/Puerto_Rico
682,18.22117,-67.1538,Mayaguez,PR,Puerto Rico,1,,32359,874.3,72097,Mayagüez,{'72097': 100},Mayagüez,72097,False,0,America/Puerto_Rico
683,18.10998,-67.0373,San German,PR,Puerto Rico,1,,30424,249.9,72125,San Germán,{'72125': 100},San Germán,72125,False,0,America/Puerto_Rico
685,18.33625,-66.97225,San Sebastian,PR,Puerto Rico,1,,38039,213.3,72131,San Sebastián,"{'72071': 2, '72131': 98}",San Sebastián|Isabela,72131|72071,False,0,America/Puerto_Rico
687,18.317079999999997,-66.4203,Morovis,PR,Puerto Rico,1,,31320,323.9,72101,Morovis,{'72101': 100},Morovis,72101,False,0,America/Puerto_Rico
688,18.38056,-66.62425,Sabana Hoyos,PR,Puerto Rico,1,,12202,164.3,72013,Arecibo,{'72013': 100},Arecibo,72013,False,0,America/Puerto_Rico
690,18.49567,-67.09825,San Antonio,PR,Puerto Rico,1,,5352,857.7,72005,Aguadilla,{'72005': 100},Aguadilla,72005,False,0,America/Puerto_Rico
692,18.40845,-66.33691,Vega Alta,PR,Puerto Rico,1,,35840,541.2,72143,Vega Alta,{'72143': 100},Vega Alta,72143,False,0,America/Puerto_Rico
693,18.42132,-66.40012,Vega Baja,PR,Puerto Rico,1,,54428,599.3,72145,Vega Baja,"{'72143': 3.93, '72145': 96.07}",Vega Baja|Vega Alta,72145|72143,False,0,America/Puerto_Rico
694,18.48329,-66.39260999999999,Vega Baja,PR,Puerto Rico,1,,69,158.4,72145,Vega Baja,{'72145': 100},Vega Baja,72145,False,0,America/Puerto_Rico
698,18.06728,-66.85273000000001,Yauco,PR,Puerto Rico,1,,36312,231.7,72153,Yauco,"{'72059': 0.24, '72153': 99.76}",Yauco|Guayanilla,72153|72059,False,0,America/Puerto_Rico
703,18.24841,-66.13119,Aguas Buenas,PR,Puerto Rico,1,,26320,372.2,72007,Aguas Buenas,"{'72007': 95.47, '72045': 4.53}",Aguas Buenas|Comerío,72007|72045,False,0,America/Puerto_Rico
704,17.96719,-66.22017,Aguirre,PR,Puerto Rico,1,,8274,678.9,72123,Salinas,"{'72057': 7.72, '72123': 92.28}",Salinas|Guayama,72123|72057,False,0,America/Puerto_Rico
705,18.12946,-66.26477,Aibonito,PR,Puerto Rico,1,,23176,309.3,72009,Aibonito,"{'72009': 99.79, '72043': 0.21}",Aibonito|Coamo,72009|72043,False,0,America/Puerto_Rico
707,18.01814,-65.92201,Maunabo,PR,Puerto Rico,1,,10964,224.1,72095,Maunabo,{'72095': 100},Maunabo,72095,False,0,America/Puerto_Rico
714,17.99854,-66.05606,Arroyo,PR,Puerto Rico,1,,17998,516.8,72015,Arroyo,{'72015': 100},Arroyo,72015,False,0,America/Puerto_Rico
715,18.01172,-66.55985,Mercedita,PR,Puerto Rico,1,,2972,179.4,72113,Ponce,"{'72075': 25.74, '72113': 74.26}",Ponce|Juana Díaz,72113|72075,False,0,America/Puerto_Rico
716,17.9994,-66.60007,Ponce,PR,Puerto Rico,1,,28089,1523.3,72113,Ponce,{'72113': 100},Ponce,72113,False,0,America/Puerto_Rico
717,18.00333,-66.61331,Ponce,PR,Puerto Rico,1,,16659,3390.6,72113,Ponce,{'72113': 100},Ponce,72113,False,0,America/Puerto_Rico
718,18.2333,-65.76108,Naguabo,PR,Puerto Rico,1,,25715,227.1,72103,Naguabo,{'72103': 100},Naguabo,72103,False,0,America/Puerto_Rico
719,18.2888,-66.25336,Naranjito,PR,Puerto Rico,1,,29119,427.3,72105,Naranjito,"{'72047': 1.42, '72105': 98.1, '72135': 0.48}",Naranjito|Corozal|Toa Alta,72105|72047|72135,False,0,America/Puerto_Rico
720,18.21772,-66.42817,Orocovis,PR,Puerto Rico,1,,21276,149.8,72107,Orocovis,"{'72043': 0.52, '72107': 99.48}",Orocovis|Coamo,72107|72043,False,0,America/Puerto_Rico
723,18.03237,-66.01233,Patillas,PR,Puerto Rico,1,,17393,161.2,72109,Patillas,{'72109': 100},Patillas,72109,False,0,America/Puerto_Rico
725,18.21858,-66.04275,Caguas,PR,Puerto Rico,1,,80555,817.3,72025,Caguas,"{'72007': 1.51, '72025': 94.56, '72035': 0.43, '72061': 2.76, '72127': 0.6, '72129': 0.14}",Caguas|Guaynabo|Aguas Buenas|San Juan|Cayey|San Lorenzo,72025|72061|72007|72127|72035|72129,False,0,America/Puerto_Rico
727,18.21495,-66.07356,Caguas,PR,Puerto Rico,1,,54823,1048.6,72025,Caguas,{'72025': 100},Caguas,72025,False,0,America/Puerto_Rico
728,18.00627,-66.6612,Ponce,PR,Puerto Rico,1,,39698,1108.2,72113,Ponce,{'72113': 100},Ponce,72113,False,0,America/Puerto_Rico
729,18.331139999999998,-65.88722,Canovanas,PR,Puerto Rico,1,,51593,611.1,72029,Canóvanas,"{'72029': 87.09, '72087': 12.91}",Canóvanas|Loíza,72029|72087,False,0,America/Puerto_Rico
730,18.030910000000002,-66.61659,Ponce,PR,Puerto Rico,1,,31634,2118.2,72113,Ponce,{'72113': 100},Ponce,72113,False,0,America/Puerto_Rico
731,18.09775,-66.63355,Ponce,PR,Puerto Rico,1,,12722,125.6,72113,Ponce,"{'72001': 2.2, '72113': 97.8}",Ponce|Adjuntas,72113|72001,False,0,America/Puerto_Rico
735,18.25365,-65.68306,Ceiba,PR,Puerto Rico,1,,12404,227.4,72037,Ceiba,"{'72037': 99.18, '72103': 0.82}",Ceiba|Naguabo,72037|72103,False,0,America/Puerto_Rico
736,18.10652,-66.15258,Cayey,PR,Puerto Rico,1,,47411,361.1,72035,Cayey,"{'72035': 92.62, '72041': 7.38}",Cayey|Cidra,72035|72041,False,0,America/Puerto_Rico
738,18.318279999999998,-65.66785,Fajardo,PR,Puerto Rico,1,,30376,457.4,72053,Fajardo,{'72053': 100},Fajardo,72053,False,0,America/Puerto_Rico
739,18.17681,-66.16055,Cidra,PR,Puerto Rico,1,,36847,485.1,72041,Cidra,{'72041': 100},Cidra,72041,False,0,America/Puerto_Rico
740,18.33221,-65.63431,Puerto Real,PR,Puerto Rico,1,,1625,1876.9,72053,Fajardo,{'72053': 100},Fajardo,72053,False,0,America/Puerto_Rico
741,18.16564,-65.75563000000001,Punta Santiago,PR,Puerto Rico,1,,4880,812.1,72069,Humacao,{'72069': 100},Humacao,72069,False,0,America/Puerto_Rico
745,18.34827,-65.8172,Rio Grande,PR,Puerto Rico,1,,51429,411.9,72119,Río Grande,"{'72029': 1.4, '72119': 98.6}",Río Grande|Canóvanas,72119|72029,False,0,America/Puerto_Rico
751,18.01023,-66.24750999999999,Salinas,PR,Puerto Rico,1,,21009,190.1,72123,Salinas,{'72123': 100},Salinas,72123,False,0,America/Puerto_Rico
754,18.1457,-65.97606999999999,San Lorenzo,PR,Puerto Rico,1,,37727,308.9,72129,San Lorenzo,{'72129': 100},San Lorenzo,72129,False,0,America/Puerto_Rico
757,17.99727,-66.38891,Santa Isabel,PR,Puerto Rico,1,,22066,301.1,72133,Santa Isabel,{'72133': 100},Santa Isabel,72133,False,0,America/Puerto_Rico
765,18.128510000000002,-65.44093000000001,Vieques,PR,Puerto Rico,1,,8607,184.5,72147,Vieques,{'72147': 100},Vieques,72147,False,0,America/Puerto_Rico
766,18.13299,-66.47703,Villalba,PR,Puerto Rico,1,,23201,255.4,72149,Villalba,"{'72107': 1.57, '72149': 98.43}",Villalba|Orocovis,72149|72107,False,0,America/Puerto_Rico
767,18.070529999999998,-65.89604,Yabucoa,PR,Puerto Rico,1,,34166,264.9,72151,Yabucoa,"{'72069': 0.21, '72151': 99.79}",Yabucoa|Humacao,72151|72069,False,0,America/Puerto_Rico
769,18.097,-66.36101,Coamo,PR,Puerto Rico,1,,39121,203.1,72043,Coamo,{'72043': 100},Coamo,72043,False,0,America/Puerto_Rico
771,18.187479999999997,-65.86931,Las Piedras,PR,Puerto Rico,1,,37165,438.3,72085,Las Piedras,{'72085': 100},Las Piedras,72085,False,0,America/Puerto_Rico
772,18.43267,-65.90836,Loiza,PR,Puerto Rico,1,,20055,608.6,72087,Loíza,{'72087': 100},Loíza,72087,False,0,America/Puerto_Rico
773,18.34173,-65.7274,Luquillo,PR,Puerto Rico,1,,18547,318.7,72089,Luquillo,{'72089': 100},Luquillo,72089,False,0,America/Puerto_Rico
775,18.313470000000002,-65.29016999999999,Culebra,PR,Puerto Rico,1,,1299,65.3,72049,Culebra,{'72049': 100},Culebra,72049,False,0,America/Puerto_Rico
777,18.22356,-65.90881,Juncos,PR,Puerto Rico,1,,39994,591.0,72077,Juncos,"{'72029': 0.16, '72063': 0.12, '72077': 99.03, '72085': 0.69}",Juncos|Las Piedras|Canóvanas|Gurabo,72077|72085|72029|72063,False,0,America/Puerto_Rico
778,18.263379999999998,-65.97936,Gurabo,PR,Puerto Rico,1,,46675,591.7,72063,Gurabo,"{'72063': 99.76, '72129': 0.24}",Gurabo|San Lorenzo,72063|72129,False,0,America/Puerto_Rico
780,18.10417,-66.57174,Coto Laurel,PR,Puerto Rico,1,,11653,264.8,72113,Ponce,"{'72075': 4.46, '72113': 95.54}",Ponce|Juana Díaz,72113|72075,False,0,America/Puerto_Rico
782,18.22544,-66.22216,Comerio,PR,Puerto Rico,1,,18229,279.7,72045,Comerío,{'72045': 100},Comerío,72045,False,0,America/Puerto_Rico
783,18.3041,-66.32847,Corozal,PR,Puerto Rico,1,,33372,337.3,72047,Corozal,{'72047': 100},Corozal,72047,False,0,America/Puerto_Rico
784,18.00543,-66.13391999999999,Guayama,PR,Puerto Rico,1,,40685,310.2,72057,Guayama,{'72057': 100},Guayama,72057,False,0,America/Puerto_Rico
786,18.15536,-66.22991999999999,La Plata,PR,Puerto Rico,1,,348,535.8,72009,Aibonito,{'72009': 100},Aibonito,72009,False,0,America/Puerto_Rico
791,18.14069,-65.818,Humacao,PR,Puerto Rico,1,,48569,558.0,72069,Humacao,{'72069': 100},Humacao,72069,False,0,America/Puerto_Rico
794,18.20155,-66.30872,Barranquitas,PR,Puerto Rico,1,,28755,334.6,72019,Barranquitas,"{'72019': 99.13, '72043': 0.29, '72045': 0.59}",Barranquitas|Comerío|Coamo,72019|72045|72043,False,0,America/Puerto_Rico
795,18.05931,-66.50178000000001,Juana Diaz,PR,Puerto Rico,1,,44766,406.8,72075,Juana Díaz,{'72075': 100},Juana Díaz,72075,False,0,America/Puerto_Rico
901,18.465320000000002,-66.10485,San Juan,PR,Puerto Rico,1,,6536,2792.2,72127,San Juan,{'72127': 100},San Juan,72127,False,0,America/Puerto_Rico
906,18.46446,-66.09499,San Juan,PR,Puerto Rico,1,,184,485.0,72127,San Juan,{'72127': 100},San Juan,72127,False,0,America/Puerto_Rico
907,18.453129999999998,-66.07778,San Juan,PR,Puerto Rico,1,,16202,5598.0,72127,San Juan,{'72127': 100},San Juan,72127,False,0,America/Puerto_Rico
909,18.44153,-66.06723000000001,San Juan,PR,Puerto Rico,1,,4989,3940.6,72127,San Juan,{'72127': 100},San Juan,72127,False,0,America/Puerto_Rico
911,18.45135,-66.05631,San Juan,PR,Puerto Rico,1,,7242,6996.3,72127,San Juan,{'72127': 100},San Juan,72127,False,0,America/Puerto_Rico
912,18.445339999999998,-66.06018,San Juan,PR,Puerto Rico,1,,5455,7880.9,72127,San Juan,{'72127': 100},San Juan,72127,False,0,America/Puerto_Rico
913,18.45022,-66.04267,San Juan,PR,Puerto Rico,1,,8406,11154.2,72127,San Juan,{'72127': 100},San Juan,72127,False,0,America/Puerto_Rico
915,18.43691,-66.04562,San Juan,PR,Puerto Rico,1,,26131,9073.9,72127,San Juan,{'72127': 100},San Juan,72127,False,0,America/Puerto_Rico
917,18.4214,-66.05005,San Juan,PR,Puerto Rico,1,,18212,6265.8,72127,San Juan,{'72127': 100},San Juan,72127,False,0,America/Puerto_Rico
918,18.42138,-66.06588,San Juan,PR,Puerto Rico,1,,16063,3272.8,72127,San Juan,{'72127': 100},San Juan,72127,False,0,America/Puerto_Rico
920,18.41571,-66.08889,San Juan,PR,Puerto Rico,1,,16809,2430.1,72127,San Juan,{'72127': 100},San Juan,72127,False,0,America/Puerto_Rico
921,18.39224,-66.08853,San Juan,PR,Puerto Rico,1,,33394,5452.9,72127,San Juan,{'72127': 100},San Juan,72127,False,0,America/Puerto_Rico
923,18.40953,-66.03866,San Juan,PR,Puerto Rico,1,,24028,5502.9,72127,San Juan,{'72127': 100},San Juan,72127,False,0,America/Puerto_Rico
924,18.39827,-66.01289,San Juan,PR,Puerto Rico,1,,49508,4667.1,72127,San Juan,"{'72031': 4.14, '72127': 95.86}",San Juan|Carolina,72127|72031,False,0,America/Puerto_Rico
925,18.40031,-66.05055,San Juan,PR,Puerto Rico,1,,6924,7509.0,72127,San Juan,{'72127': 100},San Juan,72127,False,0,America/Puerto_Rico
926,18.3462,-66.05234,San Juan,PR,Puerto Rico,1,,96530,1739.6,72127,San Juan,"{'72061': 0.39, '72127': 88.13, '72139': 11.47}",San Juan|Trujillo Alto|Guaynabo,72127|72139|72061,False,0,America/Puerto_Rico
927,18.38875,-66.07189,San Juan,PR,Puerto Rico,1,,13351,2195.3,72127,San Juan,{'72127': 100},San Juan,72127,False,0,America/Puerto_Rico
934,18.411379999999998,-66.12399,Fort Buchanan,PR,Puerto Rico,1,,79,148.4,72061,Guaynabo,"{'72021': 42.01, '72061': 57.99}",Guaynabo|Bayamón,72061|72021,False,0,America/Puerto_Rico
936,18.39548,-66.07376,San Juan,PR,Puerto Rico,1,,812,1629.4,72127,San Juan,{'72127': 100},San Juan,72127,False,0,America/Puerto_Rico
949,18.43017,-66.20883,Toa Baja,PR,Puerto Rico,1,,73891,1806.9,72137,Toa Baja,"{'72033': 4.15, '72137': 95.85}",Toa Baja|Cataño,72137|72033,False,0,America/Puerto_Rico
950,18.46208,-66.2376,Toa Baja,PR,Puerto Rico,1,,0,1.5,72051,Dorado,{'72051': 100},Dorado,72051,False,0,America/Puerto_Rico
951,18.428420000000006,-66.25661,Toa Baja,PR,Puerto Rico,1,,0,32.5,72137,Toa Baja,{'72137': 100},Toa Baja,72137,False,0,America/Puerto_Rico
952,18.42748,-66.18207,Sabana Seca,PR,Puerto Rico,1,,8156,3122.6,72137,Toa Baja,{'72137': 100},Toa Baja,72137,False,0,America/Puerto_Rico
953,18.363120000000002,-66.2475,Toa Alta,PR,Puerto Rico,1,,71891,1056.0,72135,Toa Alta,"{'72047': 0.2, '72135': 98.93, '72137': 0.87}",Toa Alta|Toa Baja|Corozal,72135|72137|72047,False,0,America/Puerto_Rico
956,18.32082,-66.17175,Bayamon,PR,Puerto Rico,1,,65355,1156.6,72021,Bayamón,"{'72021': 99.8, '72135': 0.2}",Bayamón|Toa Alta,72021|72135,False,0,America/Puerto_Rico
957,18.36735,-66.18869000000001,Bayamon,PR,Puerto Rico,1,,38915,3816.9,72021,Bayamón,"{'72021': 97.07, '72135': 2.93}",Bayamón|Toa Alta,72021|72135,False,0,America/Puerto_Rico
959,18.38485,-66.15583000000001,Bayamon,PR,Puerto Rico,1,,47459,3042.5,72021,Bayamón,"{'72021': 97.64, '72061': 1.88, '72135': 0.36, '72137': 0.12}",Bayamón|Guaynabo|Toa Alta|Toa Baja,72021|72061|72135|72137,False,0,America/Puerto_Rico
960,18.41701,-66.14446,Bayamon,PR,Puerto Rico,1,,2221,751.8,72021,Bayamón,{'72021': 100},Bayamón,72021,False,0,America/Puerto_Rico
961,18.41011,-66.16538,Bayamon,PR,Puerto Rico,1,,30784,2419.3,72021,Bayamón,"{'72021': 98.88, '72033': 1.12}",Bayamón|Cataño,72021|72033,False,0,America/Puerto_Rico
962,18.43904,-66.13928,Catano,PR,Puerto Rico,1,,19593,2274.4,72033,Cataño,{'72033': 100},Cataño,72033,False,0,America/Puerto_Rico
965,18.43385,-66.11486,Guaynabo,PR,Puerto Rico,1,,7314,5230.2,72061,Guaynabo,"{'72033': 20.48, '72061': 79.52}",Guaynabo|Cataño,72061|72033,False,0,America/Puerto_Rico
966,18.402260000000002,-66.11757,Guaynabo,PR,Puerto Rico,1,,15710,1999.6,72061,Guaynabo,"{'72021': 3.12, '72061': 91.02, '72127': 5.86}",Guaynabo|San Juan|Bayamón,72061|72127|72021,False,0,America/Puerto_Rico
968,18.40617,-66.10127,Guaynabo,PR,Puerto Rico,1,,3554,2933.4,72061,Guaynabo,{'72061': 100},Guaynabo,72061,False,0,America/Puerto_Rico
969,18.36751,-66.10852,Guaynabo,PR,Puerto Rico,1,,42525,3338.3,72061,Guaynabo,"{'72021': 1.6, '72061': 84.94, '72127': 13.45}",Guaynabo|San Juan|Bayamón,72061|72127|72021,False,0,America/Puerto_Rico
971,18.32131,-66.11811,Guaynabo,PR,Puerto Rico,1,,26640,749.5,72061,Guaynabo,"{'72021': 0.33, '72061': 99.51, '72127': 0.16}",Guaynabo|Bayamón|San Juan,72061|72021|72127,False,0,America/Puerto_Rico
976,18.33844,-65.9921,Trujillo Alto,PR,Puerto Rico,1,,58893,1502.5,72139,Trujillo Alto,"{'72031': 2.87, '72127': 1.98, '72139': 95.15}",Trujillo Alto|Carolina|San Juan,72139|72031|72127,False,0,America/Puerto_Rico
979,18.43649,-66.01699,Carolina,PR,Puerto Rico,1,,15897,4207.9,72031,Carolina,{'72031': 100},Carolina,72031,False,0,America/Puerto_Rico
982,18.40992,-65.9917,Carolina,PR,Puerto Rico,1,,14241,4473.5,72031,Carolina,{'72031': 100},Carolina,72031,False,0,America/Puerto_Rico
983,18.418039999999998,-65.97632,Carolina,PR,Puerto Rico,1,,34798,4373.3,72031,Carolina,{'72031': 100},Carolina,72031,False,0,America/Puerto_Rico
985,18.40825,-65.94842,Carolina,PR,Puerto Rico,1,,31845,1734.9,72031,Carolina,{'72031': 100},Carolina,72031,False,0,America/Puerto_Rico
987,18.33935,-65.94313000000001,Carolina,PR,Puerto Rico,1,,57181,989.3,72031,Carolina,"{'72031': 99.42, '72139': 0.58}",Carolina|Trujillo Alto,72031|72139,False,0,America/Puerto_Rico
1001,42.06258,-72.6259,Agawam,MA,Massachusetts,1,,17621,562.8,25013,Hampden,{'25013': 100},Hampden,25013,False,0,America/New_York
1002,42.37492,-72.4621,Amherst,MA,Massachusetts,1,,30066,203.7,25015,Hampshire,"{'25011': 0.97, '25015': 99.03}",Hampshire|Franklin,25015|25011,False,0,America/New_York
1003,42.39192,-72.52479,Amherst,MA,Massachusetts,1,,11238,5629.7,25015,Hampshire,{'25015': 100},Hampshire,25015,False,0,America/New_York
1005,42.42018,-72.10615,Barre,MA,Massachusetts,1,,4991,44.3,25027,Worcester,{'25027': 100},Worcester,25027,False,0,America/New_York
1007,42.27875,-72.40035999999998,Belchertown,MA,Massachusetts,1,,14967,107.5,25015,Hampshire,{'25015': 100},Hampshire,25015,False,0,America/New_York
1008,42.18428,-72.95203000000002,Blandford,MA,Massachusetts,1,,1197,9.1,25013,Hampden,{'25013': 100},Hampden,25013,False,0,America/New_York
1009,42.209720000000004,-72.33971,Bondsville,MA,Massachusetts,1,,249,352.1,25013,Hampden,{'25013': 100},Hampden,25013,False,0,America/New_York
1010,42.12863,-72.20624000000002,Brimfield,MA,Massachusetts,1,,3739,40.1,25013,Hampden,{'25013': 100},Hampden,25013,False,0,America/New_York
1011,42.29653,-72.95969000000002,Chester,MA,Massachusetts,1,,1448,16.7,25013,Hampden,"{'25013': 86.35, '25015': 13.65}",Hampden|Hampshire,25013|25015,False,0,America/New_York
1012,42.38698,-72.84631999999998,Chesterfield,MA,Massachusetts,1,,560,19.5,25015,Hampshire,{'25015': 100},Hampshire,25015,False,0,America/New_York
1013,42.1595,-72.60824000000002,Chicopee,MA,Massachusetts,1,,23065,1589.6,25013,Hampden,{'25013': 100},Hampden,25013,False,0,America/New_York
1020,42.17637,-72.56537,Chicopee,MA,Massachusetts,1,,30097,914.6,25013,Hampden,{'25013': 100},Hampden,25013,False,0,America/New_York
1022,42.197309999999995,-72.54267,Chicopee,MA,Massachusetts,1,,2499,198.3,25013,Hampden,{'25013': 100},Hampden,25013,False,0,America/New_York
1026,42.4633,-72.92024,Cummington,MA,Massachusetts,1,,954,15.2,25015,Hampshire,{'25015': 100},Hampshire,25015,False,0,America/New_York
1027,42.29508,-72.74309000000002,Easthampton,MA,Massachusetts,1,,17848,168.4,25015,Hampshire,{'25015': 100},Hampshire,25015,False,0,America/New_York
1028,42.05968,-72.49908,East Longmeadow,MA,Massachusetts,1,,16200,469.2,25013,Hampden,{'25013': 100},Hampden,25013,False,0,America/New_York
1029,42.19632,-73.04836,East Otis,MA,Massachusetts,1,,651,19.2,25003,Berkshire,{'25003': 100},Berkshire,25003,False,0,America/New_York
1030,42.06886,-72.67999,Feeding Hills,MA,Massachusetts,1,,11123,381.2,25013,Hampden,{'25013': 100},Hampden,25013,False,0,America/New_York
1031,42.32933,-72.19821999999998,Gilbertville,MA,Massachusetts,1,,1197,62.2,25027,Worcester,{'25027': 100},Worcester,25027,False,0,America/New_York
1032,42.45029,-72.81300999999998,Goshen,MA,Massachusetts,1,,533,18.7,25015,Hampshire,{'25015': 100},Hampshire,25015,False,0,America/New_York
1033,42.26081,-72.50363,Granby,MA,Massachusetts,1,,6333,86.4,25015,Hampshire,{'25015': 100},Hampshire,25015,False,0,America/New_York
1034,42.08485,-72.95765,Granville,MA,Massachusetts,1,,2179,10.9,25013,Hampden,{'25013': 100},Hampden,25013,False,0,America/New_York
1035,42.35564,-72.56921,Hadley,MA,Massachusetts,1,,5310,87.8,25015,Hampshire,{'25015': 100},Hampshire,25015,False,0,America/New_York
1036,42.06369,-72.4159,Hampden,MA,Massachusetts,1,,5191,101.3,25013,Hampden,{'25013': 100},Hampden,25013,False,0,America/New_York
1037,42.37011,-72.19771999999998,Hardwick,MA,Massachusetts,1,,798,22.9,25027,Worcester,{'25027': 100},Worcester,25027,False,0,America/New_York
1038,42.3855,-72.60699,Hatfield,MA,Massachusetts,1,,2867,98.4,25015,Hampshire,{'25015': 100},Hampshire,25015,False,0,America/New_York
1039,42.40629000000001,-72.69362,Haydenville,MA,Massachusetts,1,,1042,39.0,25015,Hampshire,"{'25011': 15.12, '25015': 84.88}",Hampshire|Franklin,25015|25011,False,0,America/New_York
1040,42.212559999999996,-72.64107,Holyoke,MA,Massachusetts,1,,40376,727.5,25013,Hampden,{'25013': 100},Hampden,25013,False,0,America/New_York
1050,42.28784,-72.86986,Huntington,MA,Massachusetts,1,,2422,25.5,25015,Hampshire,"{'25013': 13.83, '25015': 86.17}",Hampshire|Hampden,25015|25013,False,0,America/New_York
1053,42.35348,-72.71161,Leeds,MA,Massachusetts,1,,1702,126.8,25015,Hampshire,{'25015': 100},Hampshire,25015,False,0,America/New_York
1054,42.47363,-72.48746,Leverett,MA,Massachusetts,1,,1983,31.4,25011,Franklin,{'25011': 100},Franklin,25011,False,0,America/New_York
1056,42.19212,-72.45804,Ludlow,MA,Massachusetts,1,,21336,299.6,25013,Hampden,{'25013': 100},Hampden,25013,False,0,America/New_York
1057,42.09164000000001,-72.32431,Monson,MA,Massachusetts,1,,8745,73.3,25013,Hampden,{'25013': 100},Hampden,25013,False,0,America/New_York
1060,42.32228,-72.63129,Northampton,MA,Massachusetts,1,,15779,540.2,25015,Hampshire,{'25015': 100},Hampshire,25015,False,0,America/New_York
1062,42.3219,-72.69279,Florence,MA,Massachusetts,1,,10495,237.2,25015,Hampshire,{'25015': 100},Hampshire,25015,False,0,America/New_York
1063,42.3191,-72.63896,Northampton,MA,Massachusetts,1,,592,4278.5,25015,Hampshire,{'25015': 100},Hampshire,25015,False,0,America/New_York
1066,42.40763,-72.65481,North Hatfield,MA,Massachusetts,1,,9,34.7,25015,Hampshire,{'25015': 100},Hampshire,25015,False,0,America/New_York
1068,42.35002,-72.04606,Oakham,MA,Massachusetts,1,,1840,35.3,25027,Worcester,{'25027': 100},Worcester,25027,False,0,America/New_York
1069,42.18807,-72.30555,Palmer,MA,Massachusetts,1,,8698,116.4,25013,Hampden,{'25013': 100},Hampden,25013,False,0,America/New_York
1070,42.51853,-72.92390999999998,Plainfield,MA,Massachusetts,1,,604,11.8,25015,Hampshire,{'25015': 100},Hampshire,25015,False,0,America/New_York
1071,42.16035,-72.86,Russell,MA,Massachusetts,1,,1270,39.6,25013,Hampden,{'25013': 100},Hampden,25013,False,0,America/New_York
1072,42.457370000000004,-72.41841,Shutesbury,MA,Massachusetts,1,,1536,28.4,25011,Franklin,{'25011': 100},Franklin,25011,False,0,America/New_York
1073,42.23083,-72.73857,Southampton,MA,Massachusetts,1,,6140,79.4,25015,Hampshire,{'25015': 100},Hampshire,25015,False,0,America/New_York
1074,42.38661,-72.09427,South Barre,MA,Massachusetts,1,,548,1448.3,25027,Worcester,{'25027': 100},Worcester,25027,False,0,America/New_York
1075,42.25674,-72.57923000000002,South Hadley,MA,Massachusetts,1,,17763,382.0,25015,Hampshire,{'25015': 100},Hampshire,25015,False,0,America/New_York
1077,42.05437,-72.77851,Southwick,MA,Massachusetts,1,,9727,119.0,25013,Hampden,{'25013': 100},Hampden,25013,False,0,America/New_York
1079,42.19437,-72.33014,Thorndike,MA,Massachusetts,1,,658,237.5,25013,Hampden,{'25013': 100},Hampden,25013,False,0,America/New_York
1080,42.18206,-72.36564,Three Rivers,MA,Massachusetts,1,,2802,521.9,25013,Hampden,{'25013': 100},Hampden,25013,False,0,America/New_York
1081,42.06234,-72.23094,Wales,MA,Massachusetts,1,,1941,45.2,25013,Hampden,{'25013': 100},Hampden,25013,False,0,America/New_York
1082,42.2948,-72.27776,Ware,MA,Massachusetts,1,,10586,86.4,25015,Hampshire,"{'25015': 95.64, '25027': 4.36}",Hampshire|Worcester,25015|25027,False,0,America/New_York
1083,42.20382,-72.19496,Warren,MA,Massachusetts,1,,2986,70.8,25027,Worcester,{'25027': 100},Worcester,25027,False,0,America/New_York
1084,42.39038,-72.88089000000002,West Chesterfield,MA,Massachusetts,1,,174,7.4,25015,Hampshire,{'25015': 100},Hampshire,25015,False,0,America/New_York
1085,42.15371,-72.76958,Westfield,MA,Massachusetts,1,,41942,265.9,25013,Hampden,{'25013': 100},Hampden,25013,False,0,America/New_York
1086,42.1304,-72.79397,Westfield,MA,Massachusetts,1,,372,7144.9,25013,Hampden,{'25013': 100},Hampden,25013,False,0,America/New_York
1088,42.3901,-72.6478,West Hatfield,MA,Massachusetts,1,,416,49.8,25015,Hampshire,{'25015': 100},Hampshire,25015,False,0,America/New_York
1089,42.12534,-72.65026999999998,West Springfield,MA,Massachusetts,1,,28666,655.3,25013,Hampden,{'25013': 100},Hampden,25013,False,0,America/New_York
1092,42.19972,-72.23727,West Warren,MA,Massachusetts,1,,1425,80.2,25027,Worcester,{'25027': 100},Worcester,25027,False,0,America/New_York
1093,42.43439,-72.65304,Whately,MA,Massachusetts,1,,283,24.9,25011,Franklin,{'25011': 100},Franklin,25011,False,0,America/New_York
1094,42.35945,-72.13847,Wheelwright,MA,Massachusetts,1,,282,118.7,25027,Worcester,{'25027': 100},Worcester,25027,False,0,America/New_York
1095,42.127629999999996,-72.42994,Wilbraham,MA,Massachusetts,1,,14690,245.8,25013,Hampden,{'25013': 100},Hampden,25013,False,0,America/New_York
1096,42.4042,-72.76817,Williamsburg,MA,Massachusetts,1,,2695,27.0,25015,Hampshire,{'25015': 100},Hampshire,25015,False,0,America/New_York
1097,42.17603,-72.8313,Woronoco,MA,Massachusetts,1,,59,22.9,25013,Hampden,{'25013': 100},Hampden,25013,False,0,America/New_York
1098,42.3946,-72.94242,Worthington,MA,Massachusetts,1,,1196,13.6,25015,Hampshire,{'25015': 100},Hampshire,25015,False,0,America/New_York
1103,42.104,-72.59204,Springfield,MA,Massachusetts,1,,2389,2080.0,25013,Hampden,{'25013': 100},Hampden,25013,False,0,America/New_York
1104,42.134029999999996,-72.56681,Springfield,MA,Massachusetts,1,,23876,1692.5,25013,Hampden,{'25013': 100},Hampden,25013,False,0,America/New_York
1105,42.09916,-72.57898,Springfield,MA,Massachusetts,1,,11957,3836.5,25013,Hampden,{'25013': 100},Hampden,25013,False,0,America/New_York
1106,42.047909999999995,-72.57176,Longmeadow,MA,Massachusetts,1,,16022,667.1,25013,Hampden,{'25013': 100},Hampden,25013,False,0,America/New_York
1107,42.12129,-72.6055,Springfield,MA,Massachusetts,1,,11582,2974.5,25013,Hampden,{'25013': 100},Hampden,25013,False,0,America/New_York
1108,42.08055,-72.55983,Springfield,MA,Massachusetts,1,,27850,2766.1,25013,Hampden,{'25013': 100},Hampden,25013,False,0,America/New_York
1109,42.11837,-72.54875,Springfield,MA,Massachusetts,1,,29903,2145.9,25013,Hampden,{'25013': 100},Hampden,25013,False,0,America/New_York
1118,42.09476,-72.52534,Springfield,MA,Massachusetts,1,,14980,1511.0,25013,Hampden,{'25013': 100},Hampden,25013,False,0,America/New_York
1119,42.12455,-72.51122,Springfield,MA,Massachusetts,1,,13626,1539.2,25013,Hampden,{'25013': 100},Hampden,25013,False,0,America/New_York
1128,42.094879999999996,-72.48814,Springfield,MA,Massachusetts,1,,2672,911.2,25013,Hampden,{'25013': 100},Hampden,25013,False,0,America/New_York
1129,42.12099,-72.48774,Springfield,MA,Massachusetts,1,,6762,790.8,25013,Hampden,{'25013': 100},Hampden,25013,False,0,America/New_York
1151,42.15294,-72.50877,Indian Orchard,MA,Massachusetts,1,,8807,1417.7,25013,Hampden,{'25013': 100},Hampden,25013,False,0,America/New_York
1199,42.12065,-72.6045,Springfield,MA,Massachusetts,1,,0,0.0,25013,Hampden,{'25013': 0},Hampden,25013,False,0,America/New_York
1201,42.44993,-73.27644000000002,Pittsfield,MA,Massachusetts,1,,44607,339.2,25003,Berkshire,{'25003': 100},Berkshire,25003,False,0,America/New_York
1220,42.62372,-73.11718,Adams,MA,Massachusetts,1,,8209,135.1,25003,Berkshire,{'25003': 100},Berkshire,25003,False,0,America/New_York
1222,42.05898,-73.32078,Ashley Falls,MA,Massachusetts,1,,810,96.8,25003,Berkshire,{'25003': 100},Berkshire,25003,False,0,America/New_York
1223,42.31176,-73.0994,Becket,MA,Massachusetts,1,,2402,12.8,25003,Berkshire,{'25003': 100},Berkshire,25003,False,0,America/New_York
1224,42.50662,-73.19745999999998,Berkshire,MA,Massachusetts,1,,210,252.6,25003,Berkshire,{'25003': 100},Berkshire,25003,False,0,America/New_York
1225,42.562670000000004,-73.15484000000002,Cheshire,MA,Massachusetts,1,,3135,47.9,25003,Berkshire,{'25003': 100},Berkshire,25003,False,0,America/New_York
1226,42.48168,-73.13991999999998,Dalton,MA,Massachusetts,1,,6782,101.7,25003,Berkshire,{'25003': 100},Berkshire,25003,False,0,America/New_York
1229,42.27799,-73.33204,Glendale,MA,Massachusetts,1,,70,50.0,25003,Berkshire,{'25003': 100},Berkshire,25003,False,0,America/New_York
1230,42.18476,-73.34368,Great Barrington,MA,Massachusetts,1,,8542,35.6,25003,Berkshire,{'25003': 100},Berkshire,25003,False,0,America/New_York
1235,42.42975,-73.07240999999998,Hinsdale,MA,Massachusetts,1,,2640,23.4,25003,Berkshire,{'25003': 100},Berkshire,25003,False,0,America/New_York
1236,42.26658,-73.3767,Housatonic,MA,Massachusetts,1,,1140,121.3,25003,Berkshire,{'25003': 100},Berkshire,25003,False,0,America/New_York
1237,42.54971,-73.26265,Lanesborough,MA,Massachusetts,1,,2580,15.6,25003,Berkshire,{'25003': 100},Berkshire,25003,False,0,America/New_York
1238,42.29522,-73.22879,Lee,MA,Massachusetts,1,,5903,67.0,25003,Berkshire,{'25003': 100},Berkshire,25003,False,0,America/New_York
1240,42.37208,-73.27646,Lenox,MA,Massachusetts,1,,4441,81.9,25003,Berkshire,{'25003': 100},Berkshire,25003,False,0,America/New_York
1242,42.33328,-73.24920999999998,Lenox Dale,MA,Massachusetts,1,,471,369.1,25003,Berkshire,{'25003': 100},Berkshire,25003,False,0,America/New_York
1243,42.351459999999996,-73.02322,Middlefield,MA,Massachusetts,1,,257,6.9,25015,Hampshire,{'25015': 100},Hampshire,25015,False,0,America/New_York
1244,42.11608,-73.26271,Mill River,MA,Massachusetts,1,,74,23.8,25003,Berkshire,{'25003': 100},Berkshire,25003,False,0,America/New_York
1245,42.188179999999996,-73.21891,Monterey,MA,Massachusetts,1,,809,13.6,25003,Berkshire,{'25003': 100},Berkshire,25003,False,0,America/New_York
1247,42.69546,-73.07996,North Adams,MA,Massachusetts,1,,15573,118.2,25003,Berkshire,{'25003': 100},Berkshire,25003,False,0,America/New_York
1253,42.21187000000001,-73.11616,Otis,MA,Massachusetts,1,,672,15.4,25003,Berkshire,{'25003': 100},Berkshire,25003,False,0,America/New_York
1254,42.37982,-73.36545,Richmond,MA,Massachusetts,1,,1014,25.7,25003,Berkshire,{'25003': 100},Berkshire,25003,False,0,America/New_York
1255,42.10834000000001,-73.1229,Sandisfield,MA,Massachusetts,1,,972,6.8,25003,Berkshire,{'25003': 100},Berkshire,25003,False,0,America/New_York
1256,42.596270000000004,-73.01957,Savoy,MA,Massachusetts,1,,719,7.5,25003,Berkshire,{'25003': 100},Berkshire,25003,False,0,America/New_York
1257,42.09701,-73.36886,Sheffield,MA,Massachusetts,1,,2003,22.6,25003,Berkshire,{'25003': 100},Berkshire,25003,False,0,America/New_York
1258,42.10257,-73.46175,South Egremont,MA,Massachusetts,1,,489,5.6,25003,Berkshire,{'25003': 100},Berkshire,25003,False,0,America/New_York
1259,42.07553,-73.23564,Southfield,MA,Massachusetts,1,,528,9.7,25003,Berkshire,{'25003': 100},Berkshire,25003,False,0,America/New_York
1260,42.29587,-73.34517,South Lee,MA,Massachusetts,1,,481,36.9,25003,Berkshire,{'25003': 100},Berkshire,25003,False,0,America/New_York
1262,42.29354,-73.31770999999998,Stockbridge,MA,Massachusetts,1,,1066,39.7,25003,Berkshire,{'25003': 100},Berkshire,25003,False,0,America/New_York
1264,42.23409,-73.19903000000002,Tyringham,MA,Massachusetts,1,,196,4.7,25003,Berkshire,{'25003': 100},Berkshire,25003,False,0,America/New_York
1266,42.30802,-73.38405,West Stockbridge,MA,Massachusetts,1,,1369,21.7,25003,Berkshire,{'25003': 100},Berkshire,25003,False,0,America/New_York
1267,42.67197,-73.23904,Williamstown,MA,Massachusetts,1,,7955,56.6,25003,Berkshire,{'25003': 100},Berkshire,25003,False,0,America/New_York
1270,42.514920000000004,-73.04125,Windsor,MA,Massachusetts,1,,770,9.4,25003,Berkshire,{'25003': 100},Berkshire,25003,False,0,America/New_York
1301,42.62406,-72.60401,Greenfield,MA,Massachusetts,1,,17713,268.1,25011,Franklin,{'25011': 100},Franklin,25011,False,0,America/New_York
1330,42.51377,-72.81395,Ashfield,MA,Massachusetts,1,,1367,17.5,25011,Franklin,{'25011': 100},Franklin,25011,False,0,America/New_York
1331,42.56728,-72.18293,Athol,MA,Massachusetts,1,,13383,96.2,25027,Worcester,{'25027': 100},Worcester,25027,False,0,America/New_York
1337,42.695029999999996,-72.57711,Bernardston,MA,Massachusetts,1,,2498,26.9,25011,Franklin,{'25011': 100},Franklin,25011,False,0,America/New_York
1338,42.57358,-72.82134,Buckland,MA,Massachusetts,1,,127,20.9,25011,Franklin,{'25011': 100},Franklin,25011,False,0,America/New_York
1339,42.60801,-72.89005999999998,Charlemont,MA,Massachusetts,1,,1428,10.1,25011,Franklin,{'25011': 100},Franklin,25011,False,0,America/New_York
1340,42.68319,-72.71797,Colrain,MA,Massachusetts,1,,1808,15.0,25011,Franklin,{'25011': 100},Franklin,25011,False,0,America/New_York
1341,42.50447,-72.70514,Conway,MA,Massachusetts,1,,1836,19.8,25011,Franklin,{'25011': 100},Franklin,25011,False,0,America/New_York
1342,42.544509999999995,-72.60591,Deerfield,MA,Massachusetts,1,,1439,32.3,25011,Franklin,{'25011': 100},Franklin,25011,False,0,America/New_York
1343,42.65444,-72.9811,Drury,MA,Massachusetts,1,,45,5.9,25003,Berkshire,{'25003': 100},Berkshire,25003,False,0,America/New_York
1344,42.60777,-72.42882,Erving,MA,Massachusetts,1,,1459,42.5,25011,Franklin,{'25011': 100},Franklin,25011,False,0,America/New_York
1346,42.68892,-72.817,Heath,MA,Massachusetts,1,,427,9.6,25011,Franklin,{'25011': 100},Franklin,25011,False,0,America/New_York
1347,42.561370000000004,-72.51694,Lake Pleasant,MA,Massachusetts,1,,175,110.7,25011,Franklin,{'25011': 100},Franklin,25011,False,0,America/New_York
1349,42.57271,-72.48329,Millers Falls,MA,Massachusetts,1,,1292,54.8,25011,Franklin,{'25011': 100},Franklin,25011,False,0,America/New_York
1350,42.72265,-72.98244,Monroe Bridge,MA,Massachusetts,1,,91,4.4,25011,Franklin,{'25011': 100},Franklin,25011,False,0,America/New_York
1351,42.54282,-72.51905,Montague,MA,Massachusetts,1,,2099,41.9,25011,Franklin,{'25011': 100},Franklin,25011,False,0,America/New_York
1354,42.63366,-72.51108,Gill,MA,Massachusetts,1,,1608,42.1,25011,Franklin,{'25011': 100},Franklin,25011,False,0,America/New_York
1355,42.452890000000004,-72.33044,New Salem,MA,Massachusetts,1,,949,7.2,25011,Franklin,{'25011': 100},Franklin,25011,False,0,America/New_York
1360,42.67575,-72.44594000000002,Northfield,MA,Massachusetts,1,,2997,34.2,25011,Franklin,{'25011': 100},Franklin,25011,False,0,America/New_York
1364,42.61292,-72.29241,Orange,MA,Massachusetts,1,,7785,78.4,25011,Franklin,{'25011': 100},Franklin,25011,False,0,America/New_York
1366,42.48054000000001,-72.18777,Petersham,MA,Massachusetts,1,,1269,12.2,25027,Worcester,{'25027': 100},Worcester,25027,False,0,America/New_York
1367,42.6958,-72.91185,Rowe,MA,Massachusetts,1,,595,7.6,25011,Franklin,{'25011': 100},Franklin,25011,False,0,America/New_York
1368,42.680820000000004,-72.18602,Royalston,MA,Massachusetts,1,,1170,11.6,25027,Worcester,{'25027': 100},Worcester,25027,False,0,America/New_York
1370,42.59655,-72.72864,Shelburne Falls,MA,Massachusetts,1,,4041,31.6,25011,Franklin,{'25011': 100},Franklin,25011,False,0,America/New_York
1373,42.47292,-72.61561999999998,South Deerfield,MA,Massachusetts,1,,4634,73.5,25011,Franklin,{'25011': 100},Franklin,25011,False,0,America/New_York
1375,42.465109999999996,-72.55461,Sunderland,MA,Massachusetts,1,,3659,100.0,25011,Franklin,{'25011': 100},Franklin,25011,False,0,America/New_York
1376,42.59533,-72.55579,Turners Falls,MA,Massachusetts,1,,5123,735.1,25011,Franklin,{'25011': 100},Franklin,25011,False,0,America/New_York
1378,42.6748,-72.34581,Warwick,MA,Massachusetts,1,,773,8.8,25011,Franklin,{'25011': 100},Franklin,25011,False,0,America/New_York
1379,42.55285,-72.40252,Wendell,MA,Massachusetts,1,,830,10.4,25011,Franklin,{'25011': 100},Franklin,25011,False,0,America/New_York
1420,42.58578,-71.81662,Fitchburg,MA,Massachusetts,1,,40737,513.7,25027,Worcester,{'25027': 100},Worcester,25027,False,0,America/New_York
1430,42.66019,-71.92369000000002,Ashburnham,MA,Massachusetts,1,,6253,63.6,25027,Worcester,{'25027': 100},Worcester,25027,False,0,America/New_York
1431,42.676520000000004,-71.82323000000002,Ashby,MA,Massachusetts,1,,3215,50.2,25017,Middlesex,{'25017': 100},Middlesex,25017,False,0,America/New_York
1432,42.56467,-71.57139000000002,Ayer,MA,Massachusetts,1,,7762,323.1,25017,Middlesex,{'25017': 100},Middlesex,25017,False,0,America/New_York
1434,42.53854000000001,-71.6115,Devens,MA,Massachusetts,1,,1875,131.3,25027,Worcester,"{'25017': 18.83, '25027': 81.17}",Worcester|Middlesex,25027|25017,False,0,America/New_York
1436,42.605470000000004,-72.08848,Baldwinville,MA,Massachusetts,1,,3392,134.3,25027,Worcester,{'25027': 100},Worcester,25027,False,0,America/New_York
1438,42.5618,-72.0317,East Templeton,MA,Massachusetts,1,,711,398.2,25027,Worcester,{'25027': 100},Worcester,25027,False,0,America/New_York
1440,42.587379999999996,-71.98648,Gardner,MA,Massachusetts,1,,20555,326.9,25027,Worcester,{'25027': 100},Worcester,25027,False,0,America/New_York
1450,42.61368,-71.56142,Groton,MA,Massachusetts,1,,11301,125.4,25017,Middlesex,{'25017': 100},Middlesex,25017,False,0,America/New_York
1451,42.50124,-71.57378,Harvard,MA,Massachusetts,1,,4625,95.8,25027,Worcester,{'25027': 100},Worcester,25027,False,0,America/New_York
1452,42.48379,-72.00514,Hubbardston,MA,Massachusetts,1,,4642,41.2,25027,Worcester,{'25027': 100},Worcester,25027,False,0,America/New_York
1453,42.51863,-71.76138,Leominster,MA,Massachusetts,1,,41579,554.3,25027,Worcester,{'25027': 100},Worcester,25027,False,0,America/New_York
1460,42.53501,-71.4891,Littleton,MA,Massachusetts,1,,9935,208.6,25017,Middlesex,{'25017': 100},Middlesex,25017,False,0,America/New_York
1462,42.58968,-71.7199,Lunenburg,MA,Massachusetts,1,,11271,147.4,25027,Worcester,{'25027': 100},Worcester,25027,False,0,America/New_York
1463,42.67127,-71.60426,Pepperell,MA,Massachusetts,1,,12083,196.6,25017,Middlesex,{'25017': 100},Middlesex,25017,False,0,America/New_York
1464,42.57331,-71.64837,Shirley,MA,Massachusetts,1,,7598,185.9,25017,Middlesex,{'25017': 100},Middlesex,25017,False,0,America/New_York
1467,42.48772,-71.61729,Still River,MA,Massachusetts,1,,363,64.6,25027,Worcester,{'25027': 100},Worcester,25027,False,0,America/New_York
1468,42.55208,-72.06894,Templeton,MA,Massachusetts,1,,4024,72.5,25027,Worcester,{'25027': 100},Worcester,25027,False,0,America/New_York
1469,42.66673,-71.69396,Townsend,MA,Massachusetts,1,,7632,115.3,25017,Middlesex,{'25017': 100},Middlesex,25017,False,0,America/New_York
1473,42.55122,-71.90266,Westminster,MA,Massachusetts,1,,7665,79.3,25027,Worcester,{'25027': 100},Worcester,25027,False,0,America/New_York
1474,42.66784000000001,-71.75220999999998,West Townsend,MA,Massachusetts,1,,1823,82.6,25017,Middlesex,{'25017': 100},Middlesex,25017,False,0,America/New_York
1475,42.66667,-72.04899,Winchendon,MA,Massachusetts,1,,10798,92.5,25027,Worcester,{'25027': 100},Worcester,25027,False,0,America/New_York
1501,42.1972,-71.84534000000002,Auburn,MA,Massachusetts,1,,16549,401.4,25027,Worcester,{'25027': 100},Worcester,25027,False,0,America/New_York
1503,42.38378,-71.63551,Berlin,MA,Massachusetts,1,,3144,85.3,25027,Worcester,{'25027': 100},Worcester,25027,False,0,America/New_York
1504,42.0399,-71.53121999999998,Blackstone,MA,Massachusetts,1,,9246,313.7,25027,Worcester,{'25027': 100},Worcester,25027,False,0,America/New_York
1505,42.35633,-71.72123,Boylston,MA,Massachusetts,1,,4581,104.7,25027,Worcester,{'25027': 100},Worcester,25027,False,0,America/New_York
1506,42.19365,-72.10441,Brookfield,MA,Massachusetts,1,,3431,84.3,25027,Worcester,{'25027': 100},Worcester,25027,False,0,America/New_York
1507,42.13509000000001,-71.96803,Charlton,MA,Massachusetts,1,,13482,118.8,25027,Worcester,{'25027': 100},Worcester,25027,False,0,America/New_York
1510,42.4119,-71.68881999999998,Clinton,MA,Massachusetts,1,,13899,929.2,25027,Worcester,{'25027': 100},Worcester,25027,False,0,America/New_York
1515,42.20328,-72.0467,East Brookfield,MA,Massachusetts,1,,2159,85.4,25027,Worcester,{'25027': 100},Worcester,25027,False,0,America/New_York
1516,42.05284,-71.75092,Douglas,MA,Massachusetts,1,,8794,89.3,25027,Worcester,{'25027': 100},Worcester,25027,False,0,America/New_York
1518,42.123490000000004,-72.11861,Fiskdale,MA,Massachusetts,1,,3919,129.3,25027,Worcester,{'25027': 100},Worcester,25027,False,0,America/New_York
1519,42.2011,-71.68019,Grafton,MA,Massachusetts,1,,6741,233.3,25027,Worcester,{'25027': 100},Worcester,25027,False,0,America/New_York
1520,42.335359999999994,-71.85284,Holden,MA,Massachusetts,1,,15645,298.9,25027,Worcester,{'25027': 100},Worcester,25027,False,0,America/New_York
1521,42.06012,-72.16592,Holland,MA,Massachusetts,1,,2539,78.0,25013,Hampden,{'25013': 100},Hampden,25013,False,0,America/New_York
1522,42.381370000000004,-71.86913,Jefferson,MA,Massachusetts,1,,3176,78.0,25027,Worcester,{'25027': 100},Worcester,25027,False,0,America/New_York
1523,42.47971,-71.67844000000002,Lancaster,MA,Massachusetts,1,,7749,116.2,25027,Worcester,{'25027': 100},Worcester,25027,False,0,America/New_York
1524,42.24923,-71.91983,Leicester,MA,Massachusetts,1,,6902,161.8,25027,Worcester,{'25027': 100},Worcester,25027,False,0,America/New_York
1525,42.10683,-71.63235999999998,Linwood,MA,Massachusetts,1,,400,249.5,25027,Worcester,{'25027': 100},Worcester,25027,False,0,America/New_York
1527,42.19218,-71.77416,Millbury,MA,Massachusetts,1,,13630,328.3,25027,Worcester,{'25027': 100},Worcester,25027,False,0,America/New_York
1529,42.03905,-71.57766,Millville,MA,Massachusetts,1,,3242,253.2,25027,Worcester,{'25027': 100},Worcester,25027,False,0,America/New_York
1531,42.31929,-72.12795,New Braintree,MA,Massachusetts,1,,1298,18.6,25027,Worcester,{'25027': 100},Worcester,25027,False,0,America/New_York
1532,42.32315,-71.64621,Northborough,MA,Massachusetts,1,,14985,295.9,25027,Worcester,{'25027': 100},Worcester,25027,False,0,America/New_York
1534,42.14043,-71.643,Northbridge,MA,Massachusetts,1,,6311,248.2,25027,Worcester,{'25027': 100},Worcester,25027,False,0,America/New_York
1535,42.2695,-72.07795,North Brookfield,MA,Massachusetts,1,,4764,85.0,25027,Worcester,{'25027': 100},Worcester,25027,False,0,America/New_York
1536,42.23236,-71.69100999999998,North Grafton,MA,Massachusetts,1,,7786,319.0,25027,Worcester,{'25027': 100},Worcester,25027,False,0,America/New_York
1537,42.16157000000001,-71.89148,North Oxford,MA,Massachusetts,1,,2289,124.3,25027,Worcester,{'25027': 100},Worcester,25027,False,0,America/New_York
1540,42.11634,-71.85733,Oxford,MA,Massachusetts,1,,11484,225.4,25027,Worcester,{'25027': 100},Worcester,25027,False,0,America/New_York
1541,42.45649,-71.88128,Princeton,MA,Massachusetts,1,,3443,37.2,25027,Worcester,{'25027': 100},Worcester,25027,False,0,America/New_York
1542,42.20187,-71.91079,Rochdale,MA,Massachusetts,1,,2314,211.2,25027,Worcester,{'25027': 100},Worcester,25027,False,0,America/New_York
1543,42.38482,-71.96727,Rutland,MA,Massachusetts,1,,8586,87.7,25027,Worcester,{'25027': 100},Worcester,25027,False,0,America/New_York
1545,42.28423,-71.71554,Shrewsbury,MA,Massachusetts,1,,36666,657.0,25027,Worcester,{'25027': 100},Worcester,25027,False,0,America/New_York
1550,42.06039000000001,-72.03376999999998,Southbridge,MA,Massachusetts,1,,16894,319.0,25027,Worcester,{'25027': 100},Worcester,25027,False,0,America/New_York
1560,42.17496,-71.67756,South Grafton,MA,Massachusetts,1,,4401,490.7,25027,Worcester,{'25027': 100},Worcester,25027,False,0,America/New_York
1561,42.44395,-71.6855,South Lancaster,MA,Massachusetts,1,,294,1033.6,25027,Worcester,{'25027': 100},Worcester,25027,False,0,America/New_York
1562,42.24715,-71.99189,Spencer,MA,Massachusetts,1,,11913,137.4,25027,Worcester,{'25027': 100},Worcester,25027,False,0,America/New_York
1564,42.44124,-71.77297,Sterling,MA,Massachusetts,1,,8052,98.5,25027,Worcester,{'25027': 100},Worcester,25027,False,0,America/New_York
1566,42.1024,-72.08116,Sturbridge,MA,Massachusetts,1,,5618,85.7,25027,Worcester,{'25027': 100},Worcester,25027,False,0,America/New_York
1568,42.17702,-71.60467,Upton,MA,Massachusetts,1,,7762,134.6,25027,Worcester,{'25027': 100},Worcester,25027,False,0,America/New_York
1569,42.05873,-71.63708000000003,Uxbridge,MA,Massachusetts,1,,13939,180.2,25027,Worcester,{'25027': 100},Worcester,25027,False,0,America/New_York
1570,42.05206,-71.8485,Webster,MA,Massachusetts,1,,16971,523.9,25027,Worcester,{'25027': 100},Worcester,25027,False,0,America/New_York
1571,42.055009999999996,-71.93519,Dudley,MA,Massachusetts,1,,11682,211.1,25027,Worcester,{'25027': 100},Worcester,25027,False,0,America/New_York
1581,42.268159999999995,-71.61402,Westborough,MA,Massachusetts,1,,18982,342.4,25027,Worcester,{'25027': 100},Worcester,25027,False,0,America/New_York
1583,42.37025,-71.78499000000002,West Boylston,MA,Massachusetts,1,,7676,232.3,25027,Worcester,{'25027': 100},Worcester,25027,False,0,America/New_York
1585,42.24152,-72.16193,West Brookfield,MA,Massachusetts,1,,4574,68.8,25027,Worcester,{'25027': 100},Worcester,25027,False,0,America/New_York
1588,42.11992,-71.66955,Whitinsville,MA,Massachusetts,1,,9775,436.5,25027,Worcester,{'25027': 100},Worcester,25027,False,0,America/New_York
1590,42.13395,-71.75086999999998,Sutton,MA,Massachusetts,1,,9385,107.0,25027,Worcester,{'25027': 100},Worcester,25027,False,0,America/New_York
1602,42.27223,-71.84951,Worcester,MA,Massachusetts,1,,23854,1527.5,25027,Worcester,{'25027': 100},Worcester,25027,False,0,America/New_York
1603,42.24406,-71.84445,Worcester,MA,Massachusetts,1,,19336,1704.2,25027,Worcester,{'25027': 100},Worcester,25027,False,0,America/New_York
1604,42.251459999999994,-71.76773,Worcester,MA,Massachusetts,1,,37468,2079.6,25027,Worcester,{'25027': 100},Worcester,25027,False,0,America/New_York
1605,42.28947,-71.78751,Worcester,MA,Massachusetts,1,,28820,1794.7,25027,Worcester,{'25027': 100},Worcester,25027,False,0,America/New_York
1606,42.31444000000001,-71.79556,Worcester,MA,Massachusetts,1,,19729,1242.5,25027,Worcester,{'25027': 100},Worcester,25027,False,0,America/New_York
1607,42.22748,-71.78877,Worcester,MA,Massachusetts,1,,8583,1019.5,25027,Worcester,{'25027': 100},Worcester,25027,False,0,America/New_York
1608,42.26185,-71.80162,Worcester,MA,Massachusetts,1,,3639,3354.3,25027,Worcester,{'25027': 100},Worcester,25027,False,0,America/New_York
1609,42.28645,-71.82895,Worcester,MA,Massachusetts,1,,21142,2265.6,25027,Worcester,{'25027': 100},Worcester,25027,False,0,America/New_York
1610,42.24674,-71.80966,Worcester,MA,Massachusetts,1,,23040,4352.1,25027,Worcester,{'25027': 100},Worcester,25027,False,0,America/New_York
1611,42.23829,-71.87725999999998,Cherry Valley,MA,Massachusetts,1,,2241,251.5,25027,Worcester,{'25027': 100},Worcester,25027,False,0,America/New_York
1612,42.31035,-71.93077,Paxton,MA,Massachusetts,1,,4870,122.2,25027,Worcester,{'25027': 100},Worcester,25027,False,0,America/New_York
1701,42.32174000000001,-71.43817,Framingham,MA,Massachusetts,1,,32570,710.4,25017,Middlesex,{'25017': 100},Middlesex,25017,False,0,America/New_York
1702,42.28217,-71.43387,Framingham,MA,Massachusetts,1,,39149,1775.8,25017,Middlesex,{'25017': 100},Middlesex,25017,False,0,America/New_York
1718,42.519729999999996,-71.42939,Acton,MA,Massachusetts,1,,813,3899.9,25017,Middlesex,{'25017': 100},Middlesex,25017,False,0,America/New_York
1719,42.48836,-71.51782,Boxborough,MA,Massachusetts,1,,5794,187.5,25017,Middlesex,{'25017': 100},Middlesex,25017,False,0,America/New_York
1720,42.48417,-71.43805,Acton,MA,Massachusetts,1,,22684,418.4,25017,Middlesex,{'25017': 100},Middlesex,25017,False,0,America/New_York
1721,42.25729000000001,-71.46866,Ashland,MA,Massachusetts,1,,17576,519.3,25017,Middlesex,{'25017': 100},Middlesex,25017,False,0,America/New_York
1730,42.49697000000001,-71.27834,Bedford,MA,Massachusetts,1,,14053,372.6,25017,Middlesex,{'25017': 100},Middlesex,25017,False,0,America/New_York
1731,42.45675,-71.27951999999998,Hanscom Afb,MA,Massachusetts,1,,2061,680.4,25017,Middlesex,{'25017': 100},Middlesex,25017,False,0,America/New_York
1740,42.43616,-71.60728,Bolton,MA,Massachusetts,1,,5236,94.8,25027,Worcester,{'25027': 100},Worcester,25027,False,0,America/New_York
1741,42.53001,-71.35128,Carlisle,MA,Massachusetts,1,,5186,122.6,25017,Middlesex,{'25017': 100},Middlesex,25017,False,0,America/New_York
1742,42.46225,-71.36424,Concord,MA,Massachusetts,1,,19350,280.1,25017,Middlesex,{'25017': 100},Middlesex,25017,False,0,America/New_York
1745,42.29204,-71.5013,Fayville,MA,Massachusetts,1,,588,384.1,25027,Worcester,{'25027': 100},Worcester,25027,False,0,America/New_York
1746,42.19775,-71.44499,Holliston,MA,Massachusetts,1,,14634,280.4,25017,Middlesex,{'25017': 100},Middlesex,25017,False,0,America/New_York
1747,42.1248,-71.53508000000002,Hopedale,MA,Massachusetts,1,,5951,441.0,25027,Worcester,{'25027': 100},Worcester,25027,False,0,America/New_York
1748,42.2255,-71.53779,Hopkinton,MA,Massachusetts,1,,17178,219.7,25017,Middlesex,{'25017': 100},Middlesex,25017,False,0,America/New_York
1749,42.38868,-71.54647,Hudson,MA,Massachusetts,1,,19868,638.5,25017,Middlesex,{'25017': 100},Middlesex,25017,False,0,America/New_York
1752,42.3494,-71.54681,Marlborough,MA,Massachusetts,1,,39776,712.4,25017,Middlesex,{'25017': 100},Middlesex,25017,False,0,America/New_York
1754,42.4264,-71.45612,Maynard,MA,Massachusetts,1,,10600,749.0,25017,Middlesex,{'25017': 100},Middlesex,25017,False,0,America/New_York
1756,42.09302,-71.55148,Mendon,MA,Massachusetts,1,,6068,126.9,25027,Worcester,{'25027': 100},Worcester,25027,False,0,America/New_York
1757,42.15678,-71.51911,Milford,MA,Massachusetts,1,,28862,727.4,25027,Worcester,{'25027': 100},Worcester,25027,False,0,America/New_York
1760,42.28434,-71.34983000000003,Natick,MA,Massachusetts,1,,35763,854.3,25017,Middlesex,{'25017': 100},Middlesex,25017,False,0,America/New_York
1770,42.234140000000004,-71.37532,Sherborn,MA,Massachusetts,1,,4301,100.7,25017,Middlesex,{'25017': 100},Middlesex,25017,False,0,America/New_York
1772,42.30144,-71.53041999999998,Southborough,MA,Massachusetts,1,,9486,265.9,25027,Worcester,{'25027': 100},Worcester,25027,False,0,America/New_York
1773,42.4252,-71.31039,Lincoln,MA,Massachusetts,1,,4775,144.9,25017,Middlesex,{'25017': 100},Middlesex,25017,False,0,America/New_York
1775,42.429829999999995,-71.51148,Stow,MA,Massachusetts,1,,7098,146.9,25017,Middlesex,{'25017': 100},Middlesex,25017,False,0,America/New_York
1776,42.38473,-71.4234,Sudbury,MA,Massachusetts,1,,18940,281.3,25017,Middlesex,{'25017': 100},Middlesex,25017,False,0,America/New_York
1778,42.358290000000004,-71.35918000000002,Wayland,MA,Massachusetts,1,,13970,332.8,25017,Middlesex,{'25017': 100},Middlesex,25017,False,0,America/New_York
1801,42.486999999999995,-71.15426,Woburn,MA,Massachusetts,1,,40350,1186.2,25017,Middlesex,{'25017': 100},Middlesex,25017,False,0,America/New_York
1803,42.502159999999996,-71.20257,Burlington,MA,Massachusetts,1,,27059,807.3,25017,Middlesex,{'25017': 100},Middlesex,25017,False,0,America/New_York
1810,42.64655,-71.16505,Andover,MA,Massachusetts,1,,35609,415.8,25009,Essex,{'25009': 100},Essex,25009,False,0,America/New_York
1821,42.55017,-71.25216999999998,Billerica,MA,Massachusetts,1,,33016,706.4,25017,Middlesex,{'25017': 100},Middlesex,25017,False,0,America/New_York
1824,42.59114,-71.35564000000002,Chelmsford,MA,Massachusetts,1,,25955,541.5,25017,Middlesex,{'25017': 100},Middlesex,25017,False,0,America/New_York
1826,42.68314,-71.30060999999998,Dracut,MA,Massachusetts,1,,31101,549.6,25017,Middlesex,{'25017': 100},Middlesex,25017,False,0,America/New_York
1827,42.67642,-71.5005,Dunstable,MA,Massachusetts,1,,3345,74.6,25017,Middlesex,{'25017': 100},Middlesex,25017,False,0,America/New_York
1830,42.79591,-71.05314,Haverhill,MA,Massachusetts,1,,26695,702.1,25009,Essex,{'25009': 100},Essex,25009,False,0,America/New_York
1832,42.79103,-71.13131,Haverhill,MA,Massachusetts,1,,23419,747.1,25009,Essex,{'25009': 100},Essex,25009,False,0,America/New_York
1833,42.72401,-70.9821,Georgetown,MA,Massachusetts,1,,8649,245.7,25009,Essex,{'25009': 100},Essex,25009,False,0,America/New_York
1834,42.75199,-71.01486,Groveland,MA,Massachusetts,1,,6749,280.8,25009,Essex,{'25009': 100},Essex,25009,False,0,America/New_York
1835,42.75293,-71.08594000000002,Haverhill,MA,Massachusetts,1,,13166,676.3,25009,Essex,{'25009': 100},Essex,25009,False,0,America/New_York
1840,42.70688,-71.1601,Lawrence,MA,Massachusetts,1,,5560,3667.9,25009,Essex,{'25009': 100},Essex,25009,False,0,America/New_York
1841,42.71083,-71.1651,Lawrence,MA,Massachusetts,1,,48827,5904.2,25009,Essex,{'25009': 100},Essex,25009,False,0,America/New_York
1843,42.689840000000004,-71.16096999999998,Lawrence,MA,Massachusetts,1,,25454,2795.6,25009,Essex,{'25009': 100},Essex,25009,False,0,America/New_York
1844,42.73401,-71.18889,Methuen,MA,Massachusetts,1,,50019,821.3,25009,Essex,{'25009': 100},Essex,25009,False,0,America/New_York
1845,42.67135,-71.08653000000002,North Andover,MA,Massachusetts,1,,30589,416.5,25009,Essex,{'25009': 100},Essex,25009,False,0,America/New_York
1850,42.65569,-71.30292,Lowell,MA,Massachusetts,1,,16267,4326.9,25017,Middlesex,{'25017': 100},Middlesex,25017,False,0,America/New_York
1851,42.62813,-71.33566,Lowell,MA,Massachusetts,1,,30574,3485.2,25017,Middlesex,{'25017': 100},Middlesex,25017,False,0,America/New_York
1852,42.63232,-71.29538000000002,Lowell,MA,Massachusetts,1,,34939,2603.1,25017,Middlesex,{'25017': 100},Middlesex,25017,False,0,America/New_York
1854,42.64907,-71.34805,Lowell,MA,Massachusetts,1,,29561,2709.2,25017,Middlesex,{'25017': 100},Middlesex,25017,False,0,America/New_York
1860,42.838570000000004,-71.01191999999998,Merrimac,MA,Massachusetts,1,,6839,288.1,25009,Essex,{'25009': 100},Essex,25009,False,0,America/New_York
1862,42.574870000000004,-71.29344,North Billerica,MA,Massachusetts,1,,10223,427.3,25017,Middlesex,{'25017': 100},Middlesex,25017,False,0,America/New_York
1863,42.63242,-71.39059,North Chelmsford,MA,Massachusetts,1,,9131,743.0,25017,Middlesex,{'25017': 100},Middlesex,25017,False,0,America/New_York
1864,42.581559999999996,-71.08755,North Reading,MA,Massachusetts,1,,15642,436.9,25017,Middlesex,{'25017': 100},Middlesex,25017,False,0,America/New_York
1867,42.53507000000001,-71.10555,Reading,MA,Massachusetts,1,,25048,929.1,25017,Middlesex,{'25017': 100},Middlesex,25017,False,0,America/New_York
1876,42.61224,-71.22746,Tewksbury,MA,Massachusetts,1,,30807,540.9,25017,Middlesex,{'25017': 100},Middlesex,25017,False,0,America/New_York
1879,42.66638,-71.42869,Tyngsboro,MA,Massachusetts,1,,12345,259.8,25017,Middlesex,{'25017': 100},Middlesex,25017,False,0,America/New_York
1880,42.50222,-71.06702,Wakefield,MA,Massachusetts,1,,26648,1381.6,25017,Middlesex,{'25017': 100},Middlesex,25017,False,0,America/New_York
1886,42.586420000000004,-71.44008000000002,Westford,MA,Massachusetts,1,,24194,280.2,25017,Middlesex,{'25017': 100},Middlesex,25017,False,0,America/New_York
1887,42.560990000000004,-71.16545,Wilmington,MA,Massachusetts,1,,23658,507.5,25017,Middlesex,{'25017': 100},Middlesex,25017,False,0,America/New_York
1890,42.4518,-71.1463,Winchester,MA,Massachusetts,1,,22677,1368.5,25017,Middlesex,{'25017': 100},Middlesex,25017,False,0,America/New_York
1901,42.46102,-70.94655999999998,Lynn,MA,Massachusetts,1,,1759,2633.6,25009,Essex,{'25009': 100},Essex,25009,False,0,America/New_York
1902,42.47085,-70.93991,Lynn,MA,Massachusetts,1,,49172,7252.5,25009,Essex,{'25009': 100},Essex,25009,False,0,America/New_York
1904,42.49155,-70.97275,Lynn,MA,Massachusetts,1,,17142,1553.8,25009,Essex,{'25009': 100},Essex,25009,False,0,America/New_York
1905,42.46614,-70.97589,Lynn,MA,Massachusetts,1,,25465,2740.2,25009,Essex,{'25009': 100},Essex,25009,False,0,America/New_York
1906,42.46799,-71.01441,Saugus,MA,Massachusetts,1,,28165,953.3,25009,Essex,{'25009': 100},Essex,25009,False,0,America/New_York
1907,42.47583,-70.90673000000002,Swampscott,MA,Massachusetts,1,,14950,1784.5,25009,Essex,{'25009': 100},Essex,25009,False,0,America/New_York
1908,42.42978,-70.92729,Nahant,MA,Massachusetts,1,,3495,1258.8,25009,Essex,{'25009': 100},Essex,25009,False,0,America/New_York
1913,42.852959999999996,-70.94458,Amesbury,MA,Massachusetts,1,,17378,511.5,25009,Essex,{'25009': 100},Essex,25009,False,0,America/New_York
1915,42.5681,-70.86273,Beverly,MA,Massachusetts,1,,41731,1010.7,25009,Essex,{'25009': 100},Essex,25009,False,0,America/New_York
1921,42.68152,-71.01897,Boxford,MA,Massachusetts,1,,8270,130.5,25009,Essex,{'25009': 100},Essex,25009,False,0,America/New_York
1922,42.758720000000004,-70.91448000000003,Byfield,MA,Massachusetts,1,,3276,125.1,25009,Essex,{'25009': 100},Essex,25009,False,0,America/New_York
1923,42.57399,-70.94926,Danvers,MA,Massachusetts,1,,27457,770.2,25009,Essex,{'25009': 100},Essex,25009,False,0,America/New_York
1929,42.63474,-70.77689000000002,Essex,MA,Massachusetts,1,,3713,96.9,25009,Essex,{'25009': 100},Essex,25009,False,0,America/New_York
1930,42.62589000000001,-70.68968000000002,Gloucester,MA,Massachusetts,1,,30049,424.3,25009,Essex,{'25009': 100},Essex,25009,False,0,America/New_York
1937,42.58573,-70.98403,Hathorne,MA,Massachusetts,1,,174,798.0,25009,Essex,{'25009': 100},Essex,25009,False,0,America/New_York
1938,42.68365,-70.84325,Ipswich,MA,Massachusetts,1,,13901,167.2,25009,Essex,{'25009': 100},Essex,25009,False,0,America/New_York
1940,42.53456,-71.03757,Lynnfield,MA,Massachusetts,1,,13484,443.4,25009,Essex,"{'25009': 98.36, '25017': 1.64}",Essex|Middlesex,25009|25017,False,0,America/New_York
1944,42.581540000000004,-70.76825,Manchester,MA,Massachusetts,1,,5370,214.9,25009,Essex,{'25009': 100},Essex,25009,False,0,America/New_York
1945,42.499109999999995,-70.86368,Marblehead,MA,Massachusetts,1,,20488,1743.5,25009,Essex,{'25009': 100},Essex,25009,False,0,America/New_York
1949,42.60432,-71.01642,Middleton,MA,Massachusetts,1,,9779,258.1,25009,Essex,{'25009': 100},Essex,25009,False,0,America/New_York
1950,42.81237,-70.88786999999998,Newburyport,MA,Massachusetts,1,,17990,805.3,25009,Essex,{'25009': 100},Essex,25009,False,0,America/New_York
1951,42.77803,-70.84976999999998,Newbury,MA,Massachusetts,1,,3755,99.7,25009,Essex,{'25009': 100},Essex,25009,False,0,America/New_York
1952,42.84654000000001,-70.86162,Salisbury,MA,Massachusetts,1,,9227,208.0,25009,Essex,{'25009': 100},Essex,25009,False,0,America/New_York
1960,42.53372,-70.97223000000002,Peabody,MA,Massachusetts,1,,52564,1228.5,25009,Essex,{'25009': 100},Essex,25009,False,0,America/New_York
1966,42.65435,-70.6222,Rockport,MA,Massachusetts,1,,7212,384.1,25009,Essex,{'25009': 100},Essex,25009,False,0,America/New_York
1969,42.72121,-70.89293,Rowley,MA,Massachusetts,1,,6298,129.3,25009,Essex,{'25009': 100},Essex,25009,False,0,America/New_York
1970,42.5126,-70.90375999999998,Salem,MA,Massachusetts,1,,43155,1956.6,25009,Essex,{'25009': 100},Essex,25009,False,0,America/New_York
1982,42.62676,-70.85795,South Hamilton,MA,Massachusetts,1,,8020,211.4,25009,Essex,{'25009': 100},Essex,25009,False,0,America/New_York
1983,42.63728,-70.94256999999998,Topsfield,MA,Massachusetts,1,,6551,197.4,25009,Essex,{'25009': 100},Essex,25009,False,0,America/New_York
1984,42.60083,-70.88251,Wenham,MA,Massachusetts,1,,5208,245.8,25009,Essex,{'25009': 100},Essex,25009,False,0,America/New_York
1985,42.79391,-70.96907,West Newbury,MA,Massachusetts,1,,4581,121.6,25009,Essex,{'25009': 100},Essex,25009,False,0,America/New_York
2019,42.077729999999995,-71.47408,Bellingham,MA,Massachusetts,1,,17016,343.8,25021,Norfolk,{'25021': 100},Norfolk,25021,False,0,America/New_York
2021,42.17514,-71.12656,Canton,MA,Massachusetts,1,,23134,443.1,25021,Norfolk,{'25021': 100},Norfolk,25021,False,0,America/New_York
2025,42.23604,-70.81903,Cohasset,MA,Massachusetts,1,,8449,297.6,25021,Norfolk,{'25021': 100},Norfolk,25021,False,0,America/New_York
2026,42.24671,-71.17777,Dedham,MA,Massachusetts,1,,25360,931.2,25021,Norfolk,{'25021': 100},Norfolk,25021,False,0,America/New_York
2030,42.23663,-71.28418,Dover,MA,Massachusetts,1,,5987,142.9,25021,Norfolk,{'25021': 100},Norfolk,25021,False,0,America/New_York
2032,42.15491,-71.21548,East Walpole,MA,Massachusetts,1,,4455,697.6,25021,Norfolk,{'25021': 100},Norfolk,25021,False,0,America/New_York
2035,42.06266,-71.24613000000002,Foxboro,MA,Massachusetts,1,,17535,327.9,25021,Norfolk,{'25021': 100},Norfolk,25021,False,0,America/New_York
2038,42.08623,-71.41127,Franklin,MA,Massachusetts,1,,33022,458.5,25021,Norfolk,{'25021': 100},Norfolk,25021,False,0,America/New_York
2043,42.21678,-70.88499,Hingham,MA,Massachusetts,1,,23298,385.7,25023,Plymouth,{'25023': 100},Plymouth,25023,False,0,America/New_York
2045,42.28436,-70.88269,Hull,MA,Massachusetts,1,,10424,1492.9,25023,Plymouth,{'25023': 100},Plymouth,25023,False,0,America/New_York
2047,42.13346,-70.68674,Humarock,MA,Massachusetts,1,,92,290.6,25023,Plymouth,{'25023': 100},Plymouth,25023,False,0,America/New_York
2048,42.016259999999996,-71.21868,Mansfield,MA,Massachusetts,1,,23761,445.3,25005,Bristol,{'25005': 100},Bristol,25005,False,0,America/New_York
2050,42.11488,-70.71476,Marshfield,MA,Massachusetts,1,,26152,337.4,25023,Plymouth,{'25023': 100},Plymouth,25023,False,0,America/New_York
2052,42.18481,-71.305,Medfield,MA,Massachusetts,1,,12748,322.3,25021,Norfolk,{'25021': 100},Norfolk,25021,False,0,America/New_York
2053,42.15352,-71.42904,Medway,MA,Massachusetts,1,,13244,426.5,25021,Norfolk,{'25021': 100},Norfolk,25021,False,0,America/New_York
2054,42.16933,-71.36255,Millis,MA,Massachusetts,1,,8202,253.4,25021,Norfolk,{'25021': 100},Norfolk,25021,False,0,America/New_York
2056,42.11637,-71.32963000000002,Norfolk,MA,Massachusetts,1,,11317,285.3,25021,Norfolk,{'25021': 100},Norfolk,25021,False,0,America/New_York
2061,42.160740000000004,-70.81774,Norwell,MA,Massachusetts,1,,10987,193.7,25023,Plymouth,{'25023': 100},Plymouth,25023,False,0,America/New_York
2062,42.18604000000001,-71.19492,Norwood,MA,Massachusetts,1,,29201,1066.4,25021,Norfolk,{'25021': 100},Norfolk,25021,False,0,America/New_York
2066,42.20146,-70.76181,Scituate,MA,Massachusetts,1,,18101,402.3,25023,Plymouth,{'25023': 100},Plymouth,25023,False,0,America/New_York
2067,42.108109999999996,-71.18143,Sharon,MA,Massachusetts,1,,18377,297.7,25021,Norfolk,{'25021': 100},Norfolk,25021,False,0,America/New_York
2071,42.102779999999996,-71.27208,South Walpole,MA,Massachusetts,1,,1696,679.2,25021,Norfolk,{'25021': 100},Norfolk,25021,False,0,America/New_York
2072,42.11922,-71.10188000000002,Stoughton,MA,Massachusetts,1,,28534,647.9,25021,Norfolk,{'25021': 100},Norfolk,25021,False,0,America/New_York
2081,42.14651,-71.25883,Walpole,MA,Massachusetts,1,,19378,397.9,25021,Norfolk,{'25021': 100},Norfolk,25021,False,0,America/New_York
2090,42.22025,-71.21068000000002,Westwood,MA,Massachusetts,1,,15880,518.6,25021,Norfolk,{'25021': 100},Norfolk,25021,False,0,America/New_York
2093,42.0513,-71.35521999999997,Wrentham,MA,Massachusetts,1,,11734,194.9,25021,Norfolk,{'25021': 100},Norfolk,25021,False,0,America/New_York
2108,42.35767,-71.06505,Boston,MA,Massachusetts,1,,4082,10824.7,25025,Suffolk,{'25025': 100},Suffolk,25025,False,0,America/New_York
2109,42.36474000000001,-71.05301,Boston,MA,Massachusetts,1,,3853,8401.7,25025,Suffolk,{'25025': 100},Suffolk,25025,False,0,America/New_York
2110,42.358309999999996,-71.05175,Boston,MA,Massachusetts,1,,2449,3693.1,25025,Suffolk,{'25025': 100},Suffolk,25025,False,0,America/New_York
2111,42.35007,-71.05911,Boston,MA,Massachusetts,1,,7926,10543.8,25025,Suffolk,{'25025': 100},Suffolk,25025,False,0,America/New_York
2113,42.36542,-71.0554,Boston,MA,Massachusetts,1,,7531,26621.1,25025,Suffolk,{'25025': 100},Suffolk,25025,False,0,America/New_York
2114,42.36316,-71.06732,Boston,MA,Massachusetts,1,,13516,10322.8,25025,Suffolk,{'25025': 100},Suffolk,25025,False,0,America/New_York
2115,42.34108,-71.09458000000002,Boston,MA,Massachusetts,1,,29108,15513.0,25025,Suffolk,{'25025': 100},Suffolk,25025,False,0,America/New_York
2116,42.3506,-71.07566,Boston,MA,Massachusetts,1,,23118,12631.6,25025,Suffolk,{'25025': 100},Suffolk,25025,False,0,America/New_York
2118,42.33818,-71.07072,Boston,MA,Massachusetts,1,,27830,9331.3,25025,Suffolk,{'25025': 100},Suffolk,25025,False,0,America/New_York
2119,42.3241,-71.08483000000003,Roxbury,MA,Massachusetts,1,,28199,6125.8,25025,Suffolk,{'25025': 100},Suffolk,25025,False,0,America/New_York
2120,42.3321,-71.09637,Roxbury Crossing,MA,Massachusetts,1,,14928,9444.0,25025,Suffolk,{'25025': 100},Suffolk,25025,False,0,America/New_York
2121,42.30589000000001,-71.08586,Dorchester,MA,Massachusetts,1,,29919,5746.9,25025,Suffolk,{'25025': 100},Suffolk,25025,False,0,America/New_York
2122,42.30007,-71.03352,Dorchester,MA,Massachusetts,1,,25059,4454.7,25025,Suffolk,{'25025': 100},Suffolk,25025,False,0,America/New_York
2124,42.28572,-71.07105,Dorchester Center,MA,Massachusetts,1,,55821,6159.0,25025,Suffolk,{'25025': 100},Suffolk,25025,False,0,America/New_York
2125,42.31544,-71.05594,Dorchester,MA,Massachusetts,1,,34358,6028.8,25025,Suffolk,{'25025': 100},Suffolk,25025,False,0,America/New_York
2126,42.27434,-71.09383000000003,Mattapan,MA,Massachusetts,1,,29591,4746.0,25025,Suffolk,{'25025': 100},Suffolk,25025,False,0,America/New_York
2127,42.33479000000001,-71.03901,South Boston,MA,Massachusetts,1,,36898,6068.8,25025,Suffolk,{'25025': 100},Suffolk,25025,False,0,America/New_York
2128,42.372679999999995,-71.01652,East Boston,MA,Massachusetts,1,,46927,3224.2,25025,Suffolk,{'25025': 100},Suffolk,25025,False,0,America/New_York
2129,42.37975,-71.06169,Charlestown,MA,Massachusetts,1,,19414,4697.9,25025,Suffolk,{'25025': 100},Suffolk,25025,False,0,America/New_York
2130,42.30986,-71.11487,Jamaica Plain,MA,Massachusetts,1,,40377,4099.6,25025,Suffolk,{'25025': 100},Suffolk,25025,False,0,America/New_York
2131,42.28463,-71.12653,Roslindale,MA,Massachusetts,1,,33771,4451.7,25025,Suffolk,{'25025': 100},Suffolk,25025,False,0,America/New_York
2132,42.28025,-71.16145,West Roxbury,MA,Massachusetts,1,,28487,2190.0,25025,Suffolk,{'25025': 100},Suffolk,25025,False,0,America/New_York
2134,42.35787,-71.12941,Allston,MA,Massachusetts,1,,19424,6259.7,25025,Suffolk,{'25025': 100},Suffolk,25025,False,0,America/New_York
2135,42.34981,-71.15386,Brighton,MA,Massachusetts,1,,44760,6270.6,25025,Suffolk,{'25025': 100},Suffolk,25025,False,0,America/New_York
2136,42.25533,-71.12934,Hyde Park,MA,Massachusetts,1,,34223,2395.9,25025,Suffolk,{'25025': 100},Suffolk,25025,False,0,America/New_York
2138,42.38004,-71.13463,Cambridge,MA,Massachusetts,1,,38835,5116.3,25017,Middlesex,{'25017': 100},Middlesex,25017,False,0,America/New_York
2139,42.36253,-71.10302,Cambridge,MA,Massachusetts,1,,38272,9009.3,25017,Middlesex,{'25017': 100},Middlesex,25017,False,0,America/New_York
2140,42.39327,-71.13323000000003,Cambridge,MA,Massachusetts,1,,21338,5888.0,25017,Middlesex,{'25017': 100},Middlesex,25017,False,0,America/New_York
2141,42.36999,-71.08265,Cambridge,MA,Massachusetts,1,,14052,7142.9,25017,Middlesex,{'25017': 100},Middlesex,25017,False,0,America/New_York
2142,42.36195,-71.082,Cambridge,MA,Massachusetts,1,,3294,4363.1,25017,Middlesex,{'25017': 100},Middlesex,25017,False,0,America/New_York
2143,42.38145,-71.09684,Somerville,MA,Massachusetts,1,,26151,6130.0,25017,Middlesex,{'25017': 100},Middlesex,25017,False,0,America/New_York
2144,42.40074,-71.12194000000002,Somerville,MA,Massachusetts,1,,25277,8522.8,25017,Middlesex,{'25017': 100},Middlesex,25017,False,0,America/New_York
2145,42.39204,-71.08958,Somerville,MA,Massachusetts,1,,26868,7035.9,25017,Middlesex,{'25017': 100},Middlesex,25017,False,0,America/New_York
2148,42.430479999999996,-71.0576,Malden,MA,Massachusetts,1,,61354,4553.7,25017,Middlesex,{'25017': 100},Middlesex,25017,False,0,America/New_York
2149,42.406420000000004,-71.05447,Everett,MA,Massachusetts,1,,45596,4686.6,25017,Middlesex,"{'25017': 100, '25025': 0}",Middlesex|Suffolk,25017|25025,False,0,America/New_York
2150,42.395920000000004,-71.03245,Chelsea,MA,Massachusetts,1,,39842,6133.1,25025,Suffolk,{'25025': 100},Suffolk,25025,False,0,America/New_York
2151,42.418440000000004,-71.00350999999998,Revere,MA,Massachusetts,1,,53976,3405.9,25025,Suffolk,{'25025': 100},Suffolk,25025,False,0,America/New_York
2152,42.37279,-70.97788,Winthrop,MA,Massachusetts,1,,18535,3425.0,25025,Suffolk,{'25025': 100},Suffolk,25025,False,0,America/New_York
2155,42.42325,-71.10884,Medford,MA,Massachusetts,1,,59793,2731.0,25017,Middlesex,{'25017': 100},Middlesex,25017,False,0,America/New_York
2163,42.36636,-71.12076,Boston,MA,Massachusetts,1,,2401,10057.3,25025,Suffolk,{'25025': 100},Suffolk,25025,False,0,America/New_York
2169,42.24759,-71.00322,Quincy,MA,Massachusetts,1,,56584,2369.6,25021,Norfolk,{'25021': 100},Norfolk,25021,False,0,America/New_York
2170,42.26649000000001,-71.01615,Quincy,MA,Massachusetts,1,,19367,3615.6,25021,Norfolk,{'25021': 100},Norfolk,25021,False,0,America/New_York
2171,42.28822,-71.02459,Quincy,MA,Massachusetts,1,,18170,2788.2,25021,Norfolk,{'25021': 100},Norfolk,25021,False,0,America/New_York
2176,42.45561,-71.05901,Melrose,MA,Massachusetts,1,,28116,2224.9,25017,Middlesex,{'25017': 100},Middlesex,25017,False,0,America/New_York
2180,42.47407000000001,-71.09723000000002,Stoneham,MA,Massachusetts,1,,22144,1376.0,25017,Middlesex,{'25017': 100},Middlesex,25017,False,0,America/New_York
2184,42.20384,-71.00224,Braintree,MA,Massachusetts,1,,37207,1002.8,25021,Norfolk,{'25021': 100},Norfolk,25021,False,0,America/New_York
2186,42.24123,-71.08436999999998,Milton,MA,Massachusetts,1,,27568,801.0,25021,Norfolk,{'25021': 100},Norfolk,25021,False,0,America/New_York
2188,42.20807,-70.95749,Weymouth,MA,Massachusetts,1,,15287,1516.3,25021,Norfolk,{'25021': 100},Norfolk,25021,False,0,America/New_York
2189,42.20876,-70.9316,East Weymouth,MA,Massachusetts,1,,15603,1476.8,25021,Norfolk,{'25021': 100},Norfolk,25021,False,0,America/New_York
2190,42.16646,-70.95271,South Weymouth,MA,Massachusetts,1,,17196,875.3,25021,Norfolk,{'25021': 100},Norfolk,25021,False,0,America/New_York
2191,42.243629999999996,-70.94148,North Weymouth,MA,Massachusetts,1,,8298,1613.5,25021,Norfolk,{'25021': 100},Norfolk,25021,False,0,America/New_York
2199,42.34747,-71.08202,Boston,MA,Massachusetts,1,,1149,7731.5,25025,Suffolk,{'25025': 100},Suffolk,25025,False,0,America/New_York
2203,42.3605,-71.05896,Boston,MA,Massachusetts,1,,25,0.0,25025,Suffolk,{'25025': 0},Suffolk,25025,False,0,America/New_York
2210,42.34778,-71.03905999999998,Boston,MA,Massachusetts,1,,3196,839.8,25025,Suffolk,{'25025': 100},Suffolk,25025,False,0,America/New_York
2215,42.347770000000004,-71.10282,Boston,MA,Massachusetts,1,,25619,13185.2,25025,Suffolk,"{'25021': 0, '25025': 100}",Suffolk|Norfolk,25025|25021,False,0,America/New_York
2301,42.077909999999996,-71.04223,Brockton,MA,Massachusetts,1,,62929,1893.5,25023,Plymouth,{'25023': 100},Plymouth,25023,False,0,America/New_York
2302,42.08784,-70.99869,Brockton,MA,Massachusetts,1,,32497,1422.7,25023,Plymouth,{'25023': 100},Plymouth,25023,False,0,America/New_York
2322,42.12666,-71.04924,Avon,MA,Massachusetts,1,,4482,391.9,25021,Norfolk,{'25021': 100},Norfolk,25021,False,0,America/New_York
2324,41.97282,-70.97489,Bridgewater,MA,Massachusetts,1,,27397,376.4,25023,Plymouth,{'25023': 100},Plymouth,25023,False,0,America/New_York
2330,41.87389,-70.75635,Carver,MA,Massachusetts,1,,11661,119.1,25023,Plymouth,{'25023': 100},Plymouth,25023,False,0,America/New_York
2332,42.0467,-70.71495999999998,Duxbury,MA,Massachusetts,1,,15703,245.2,25023,Plymouth,{'25023': 100},Plymouth,25023,False,0,America/New_York
2333,42.03515,-70.94241,East Bridgewater,MA,Massachusetts,1,,14386,309.1,25023,Plymouth,{'25023': 100},Plymouth,25023,False,0,America/New_York
2338,41.991409999999995,-70.86326,Halifax,MA,Massachusetts,1,,7824,181.7,25023,Plymouth,{'25023': 100},Plymouth,25023,False,0,America/New_York
2339,42.1224,-70.85665,Hanover,MA,Massachusetts,1,,14397,344.9,25023,Plymouth,{'25023': 100},Plymouth,25023,False,0,America/New_York
2341,42.05579,-70.87232,Hanson,MA,Massachusetts,1,,10668,262.7,25023,Plymouth,{'25023': 100},Plymouth,25023,False,0,America/New_York
2343,42.14729000000001,-71.00482,Holbrook,MA,Massachusetts,1,,10728,591.8,25021,Norfolk,{'25021': 100},Norfolk,25021,False,0,America/New_York
2346,41.880359999999996,-70.87432,Middleboro,MA,Massachusetts,1,,24463,129.6,25023,Plymouth,{'25023': 100},Plymouth,25023,False,0,America/New_York
2347,41.83127,-70.95914,Lakeville,MA,Massachusetts,1,,11335,137.5,25023,Plymouth,{'25023': 100},Plymouth,25023,False,0,America/New_York
2351,42.11724,-70.95962,Abington,MA,Massachusetts,1,,16330,640.0,25023,Plymouth,{'25023': 100},Plymouth,25023,False,0,America/New_York
2356,42.05507,-71.12058,North Easton,MA,Massachusetts,1,,12962,353.8,25005,Bristol,{'25005': 100},Bristol,25005,False,0,America/New_York
2357,42.05772,-71.08075,North Easton,MA,Massachusetts,1,,1126,1091.3,25005,Bristol,{'25005': 100},Bristol,25005,False,0,America/New_York
2359,42.06547,-70.80143000000002,Pembroke,MA,Massachusetts,1,,18304,316.1,25023,Plymouth,{'25023': 100},Plymouth,25023,False,0,America/New_York
2360,41.87859,-70.63065999999998,Plymouth,MA,Massachusetts,1,,59133,227.5,25023,Plymouth,{'25023': 100},Plymouth,25023,False,0,America/New_York
2364,41.98617,-70.74823,Kingston,MA,Massachusetts,1,,13381,261.6,25023,Plymouth,{'25023': 100},Plymouth,25023,False,0,America/New_York
2366,41.85082,-70.65717,South Carver,MA,Massachusetts,1,,198,80.4,25023,Plymouth,{'25023': 100},Plymouth,25023,False,0,America/New_York
2367,41.96345,-70.80973,Plympton,MA,Massachusetts,1,,2945,74.2,25023,Plymouth,{'25023': 100},Plymouth,25023,False,0,America/New_York
2368,42.176970000000004,-71.05341,Randolph,MA,Massachusetts,1,,34232,1232.6,25021,Norfolk,{'25021': 100},Norfolk,25021,False,0,America/New_York
2370,42.129870000000004,-70.91096,Rockland,MA,Massachusetts,1,,17909,655.0,25023,Plymouth,{'25023': 100},Plymouth,25023,False,0,America/New_York
2375,42.01746,-71.10146999999998,South Easton,MA,Massachusetts,1,,10218,243.5,25005,Bristol,{'25005': 100},Bristol,25005,False,0,America/New_York
2379,42.021390000000004,-71.02669,West Bridgewater,MA,Massachusetts,1,,7165,174.2,25023,Plymouth,{'25023': 100},Plymouth,25023,False,0,America/New_York
2382,42.07999,-70.93991,Whitman,MA,Massachusetts,1,,14961,806.6,25023,Plymouth,{'25023': 100},Plymouth,25023,False,0,America/New_York
2420,42.45632,-71.21668000000003,Lexington,MA,Massachusetts,1,,14496,823.7,25017,Middlesex,{'25017': 100},Middlesex,25017,False,0,America/New_York
2421,42.43854,-71.24,Lexington,MA,Massachusetts,1,,18984,679.9,25017,Middlesex,{'25017': 100},Middlesex,25017,False,0,America/New_York
2445,42.32597,-71.13396999999998,Brookline,MA,Massachusetts,1,,21324,3066.4,25021,Norfolk,{'25021': 100},Norfolk,25021,False,0,America/New_York
2446,42.34356,-71.12167,Brookline,MA,Massachusetts,1,,29834,8793.0,25021,Norfolk,{'25021': 100},Norfolk,25021,False,0,America/New_York
2451,42.3982,-71.2571,Waltham,MA,Massachusetts,1,,18699,1217.6,25017,Middlesex,{'25017': 100},Middlesex,25017,False,0,America/New_York
2452,42.393570000000004,-71.2196,Waltham,MA,Massachusetts,1,,15288,1485.3,25017,Middlesex,{'25017': 100},Middlesex,25017,False,0,America/New_York
2453,42.36913,-71.24024,Waltham,MA,Massachusetts,1,,28877,3193.4,25017,Middlesex,{'25017': 100},Middlesex,25017,False,0,America/New_York
2457,42.29838,-71.26836,Babson Park,MA,Massachusetts,1,,1715,3465.3,25021,Norfolk,{'25021': 100},Norfolk,25021,False,0,America/New_York
2458,42.3528,-71.18748000000002,Newton,MA,Massachusetts,1,,12522,2345.8,25017,Middlesex,{'25017': 100},Middlesex,25017,False,0,America/New_York
2459,42.31493,-71.19174,Newton Center,MA,Massachusetts,1,,19463,1473.5,25017,Middlesex,{'25017': 100},Middlesex,25017,False,0,America/New_York
2460,42.35196,-71.20831,Newtonville,MA,Massachusetts,1,,9754,2511.5,25017,Middlesex,{'25017': 100},Middlesex,25017,False,0,America/New_York
2461,42.31682,-71.20848000000002,Newton Highlands,MA,Massachusetts,1,,7404,1872.9,25017,Middlesex,{'25017': 100},Middlesex,25017,False,0,America/New_York
2462,42.329879999999996,-71.25607,Newton Lower Falls,MA,Massachusetts,1,,1420,1136.5,25017,Middlesex,{'25017': 100},Middlesex,25017,False,0,America/New_York
2464,42.312870000000004,-71.21958000000002,Newton Upper Falls,MA,Massachusetts,1,,3103,2021.5,25017,Middlesex,{'25017': 100},Middlesex,25017,False,0,America/New_York
2465,42.34917,-71.22668,West Newton,MA,Massachusetts,1,,11964,2016.4,25017,Middlesex,{'25017': 100},Middlesex,25017,False,0,America/New_York
2466,42.34411,-71.24806,Auburndale,MA,Massachusetts,1,,8761,1746.7,25017,Middlesex,{'25017': 100},Middlesex,25017,False,0,America/New_York
2467,42.31641,-71.16118,Chestnut Hill,MA,Massachusetts,1,,21864,1782.0,25021,Norfolk,"{'25017': 37.9, '25021': 38.86, '25025': 23.24}",Norfolk|Middlesex|Suffolk,25021|25017|25025,False,0,America/New_York
2468,42.32731,-71.23076,Waban,MA,Massachusetts,1,,5688,1374.2,25017,Middlesex,{'25017': 100},Middlesex,25017,False,0,America/New_York
2472,42.37,-71.17725,Watertown,MA,Massachusetts,1,,35387,3062.0,25017,Middlesex,{'25017': 100},Middlesex,25017,False,0,America/New_York
2474,42.42023,-71.1565,Arlington,MA,Massachusetts,1,,28333,3330.4,25017,Middlesex,{'25017': 100},Middlesex,25017,False,0,America/New_York
2476,42.41624,-71.17518000000003,Arlington,MA,Massachusetts,1,,16814,3049.8,25017,Middlesex,{'25017': 100},Middlesex,25017,False,0,America/New_York
2478,42.396029999999996,-71.17951,Belmont,MA,Massachusetts,1,,26033,2050.7,25017,Middlesex,{'25017': 100},Middlesex,25017,False,0,America/New_York
2481,42.31293,-71.27431,Wellesley Hills,MA,Massachusetts,1,,16447,1111.8,25021,Norfolk,{'25021': 100},Norfolk,25021,False,0,America/New_York
2482,42.29384,-71.29986,Wellesley,MA,Massachusetts,1,,11039,944.6,25021,Norfolk,{'25021': 100},Norfolk,25021,False,0,America/New_York
2492,42.27612,-71.24374,Needham,MA,Massachusetts,1,,20258,806.6,25021,Norfolk,{'25021': 100},Norfolk,25021,False,0,America/New_York
2493,42.35893,-71.30008000000002,Weston,MA,Massachusetts,1,,12067,258.5,25017,Middlesex,{'25017': 100},Middlesex,25017,False,0,America/New_York
2494,42.299659999999996,-71.23201,Needham Heights,MA,Massachusetts,1,,10477,1249.9,25021,Norfolk,{'25021': 100},Norfolk,25021,False,0,America/New_York
2532,41.75163,-70.59728,Buzzards Bay,MA,Massachusetts,1,,13238,343.3,25001,Barnstable,"{'25001': 84.5, '25023': 15.5}",Barnstable|Plymouth,25001|25023,False,0,America/New_York
2534,41.66707,-70.61995,Cataumet,MA,Massachusetts,1,,741,142.1,25001,Barnstable,{'25001': 100},Barnstable,25001,False,0,America/New_York
2535,41.34896,-70.74628,Chilmark,MA,Massachusetts,1,,1463,18.6,25007,Dukes,{'25007': 100},Dukes,25007,False,0,America/New_York
2536,41.596940000000004,-70.56721,East Falmouth,MA,Massachusetts,1,,19370,273.2,25001,Barnstable,{'25001': 100},Barnstable,25001,False,0,America/New_York
2537,41.72948,-70.44013000000002,East Sandwich,MA,Massachusetts,1,,6535,199.1,25001,Barnstable,{'25001': 100},Barnstable,25001,False,0,America/New_York
2538,41.77702,-70.64917,East Wareham,MA,Massachusetts,1,,3652,306.4,25023,Plymouth,{'25023': 100},Plymouth,25023,False,0,America/New_York
2539,41.37994000000001,-70.53223,Edgartown,MA,Massachusetts,1,,4306,58.6,25007,Dukes,{'25007': 100},Dukes,25007,False,0,America/New_York
2540,41.57201,-70.62793,Falmouth,MA,Massachusetts,1,,8389,296.2,25001,Barnstable,{'25001': 100},Barnstable,25001,False,0,America/New_York
2542,41.70259,-70.54687,Buzzards Bay,MA,Massachusetts,1,,909,14.3,25001,Barnstable,{'25001': 100},Barnstable,25001,False,0,America/New_York
2543,41.49345,-70.73109000000002,Woods Hole,MA,Massachusetts,1,,745,24.7,25001,Barnstable,"{'25001': 96.38, '25007': 3.62}",Barnstable|Dukes,25001|25007,False,0,America/New_York
2553,41.713359999999994,-70.61883,Monument Beach,MA,Massachusetts,1,,97,343.3,25001,Barnstable,{'25001': 100},Barnstable,25001,False,0,America/New_York
2554,41.285379999999996,-70.0798,Nantucket,MA,Massachusetts,1,,10842,94.3,25019,Nantucket,{'25019': 100},Nantucket,25019,False,0,America/New_York
2556,41.63952000000001,-70.62584,North Falmouth,MA,Massachusetts,1,,2681,311.1,25001,Barnstable,{'25001': 100},Barnstable,25001,False,0,America/New_York
2557,41.4366,-70.58,Oak Bluffs,MA,Massachusetts,1,,4686,241.3,25007,Dukes,{'25007': 100},Dukes,25007,False,0,America/New_York
2558,41.7448,-70.6535,Onset,MA,Massachusetts,1,,1146,677.0,25023,Plymouth,{'25023': 100},Plymouth,25023,False,0,America/New_York
2559,41.69165,-70.61522,Pocasset,MA,Massachusetts,1,,4059,258.9,25001,Barnstable,{'25001': 100},Barnstable,25001,False,0,America/New_York
2561,41.76886,-70.53319,Sagamore,MA,Massachusetts,1,,301,338.6,25001,Barnstable,{'25001': 100},Barnstable,25001,False,0,America/New_York
2562,41.78718,-70.52691,Sagamore Beach,MA,Massachusetts,1,,3052,341.0,25001,Barnstable,{'25001': 100},Barnstable,25001,False,0,America/New_York
2563,41.71962,-70.47801,Sandwich,MA,Massachusetts,1,,9573,302.7,25001,Barnstable,{'25001': 100},Barnstable,25001,False,0,America/New_York
2564,41.26529,-69.98433,Siasconset,MA,Massachusetts,1,,247,20.8,25019,Nantucket,{'25019': 100},Nantucket,25019,False,0,America/New_York
2568,41.45264,-70.61758,Vineyard Haven,MA,Massachusetts,1,,4103,232.1,25007,Dukes,{'25007': 100},Dukes,25007,False,0,America/New_York
2571,41.76357,-70.69795,Wareham,MA,Massachusetts,1,,10927,203.4,25023,Plymouth,{'25023': 100},Plymouth,25023,False,0,America/New_York
2575,41.39991,-70.65451,West Tisbury,MA,Massachusetts,1,,2707,42.1,25007,Dukes,{'25007': 100},Dukes,25007,False,0,America/New_York
2576,41.77807,-70.7637,West Wareham,MA,Massachusetts,1,,4467,149.0,25023,Plymouth,{'25023': 100},Plymouth,25023,False,0,America/New_York
2584,41.258829999999996,-70.00735,Nantucket,MA,Massachusetts,1,,12,57.3,25019,Nantucket,{'25019': 100},Nantucket,25019,False,0,America/New_York
2601,41.6603,-70.29682,Hyannis,MA,Massachusetts,1,,15215,633.0,25001,Barnstable,{'25001': 100},Barnstable,25001,False,0,America/New_York
2630,41.70462,-70.30329,Barnstable,MA,Massachusetts,1,,2064,178.1,25001,Barnstable,{'25001': 100},Barnstable,25001,False,0,America/New_York
2631,41.74684,-70.06940999999999,Brewster,MA,Massachusetts,1,,9773,169.6,25001,Barnstable,{'25001': 100},Barnstable,25001,False,0,America/New_York
2632,41.66055,-70.34749000000001,Centerville,MA,Massachusetts,1,,10043,566.6,25001,Barnstable,{'25001': 100},Barnstable,25001,False,0,America/New_York
2633,41.68892,-69.97227,Chatham,MA,Massachusetts,1,,4175,198.4,25001,Barnstable,{'25001': 100},Barnstable,25001,False,0,America/New_York
2635,41.62373,-70.44049,Cotuit,MA,Massachusetts,1,,3131,229.7,25001,Barnstable,{'25001': 100},Barnstable,25001,False,0,America/New_York
2637,41.705709999999996,-70.27238,Cummaquid,MA,Massachusetts,1,,167,139.6,25001,Barnstable,{'25001': 100},Barnstable,25001,False,0,America/New_York
2638,41.73226,-70.19362,Dennis,MA,Massachusetts,1,,3117,208.7,25001,Barnstable,{'25001': 100},Barnstable,25001,False,0,America/New_York
2639,41.66634000000001,-70.13529,Dennis Port,MA,Massachusetts,1,,3160,400.0,25001,Barnstable,{'25001': 100},Barnstable,25001,False,0,America/New_York
2641,41.75059,-70.15222,East Dennis,MA,Massachusetts,1,,200,98.5,25001,Barnstable,{'25001': 100},Barnstable,25001,False,0,America/New_York
2642,41.83957,-69.97697,Eastham,MA,Massachusetts,1,,4893,137.3,25001,Barnstable,{'25001': 100},Barnstable,25001,False,0,America/New_York
2643,41.765679999999996,-69.93648,East Orleans,MA,Massachusetts,1,,0,5.3,25001,Barnstable,{'25001': 100},Barnstable,25001,False,0,America/New_York
2644,41.68422,-70.51024,Forestdale,MA,Massachusetts,1,,4340,426.2,25001,Barnstable,{'25001': 100},Barnstable,25001,False,0,America/New_York
2645,41.70422,-70.06083000000001,Harwich,MA,Massachusetts,1,,9487,224.2,25001,Barnstable,{'25001': 100},Barnstable,25001,False,0,America/New_York
2646,41.670790000000004,-70.07194,Harwich Port,MA,Massachusetts,1,,1868,214.9,25001,Barnstable,{'25001': 100},Barnstable,25001,False,0,America/New_York
2647,41.631840000000004,-70.30805,Hyannis Port,MA,Massachusetts,1,,90,105.1,25001,Barnstable,{'25001': 100},Barnstable,25001,False,0,America/New_York
2648,41.67072,-70.41636,Marstons Mills,MA,Massachusetts,1,,6638,303.9,25001,Barnstable,{'25001': 100},Barnstable,25001,False,0,America/New_York
2649,41.61764,-70.49053,Mashpee,MA,Massachusetts,1,,14101,232.6,25001,Barnstable,{'25001': 100},Barnstable,25001,False,0,America/New_York
2650,41.70342,-69.96591,North Chatham,MA,Massachusetts,1,,845,227.4,25001,Barnstable,{'25001': 100},Barnstable,25001,False,0,America/New_York
2651,41.87506,-70.0034,North Eastham,MA,Massachusetts,1,,0,85.9,25001,Barnstable,{'25001': 100},Barnstable,25001,False,0,America/New_York
2652,42.044109999999996,-70.09475,North Truro,MA,Massachusetts,1,,761,56.7,25001,Barnstable,{'25001': 100},Barnstable,25001,False,0,America/New_York
2653,41.76877,-69.9739,Orleans,MA,Massachusetts,1,,5852,189.0,25001,Barnstable,{'25001': 100},Barnstable,25001,False,0,America/New_York
2655,41.62995,-70.39258000000002,Osterville,MA,Massachusetts,1,,3393,208.0,25001,Barnstable,{'25001': 100},Barnstable,25001,False,0,America/New_York
2657,42.06139,-70.19814000000001,Provincetown,MA,Massachusetts,1,,2960,117.5,25001,Barnstable,{'25001': 100},Barnstable,25001,False,0,America/New_York
2659,41.68305,-70.02231,South Chatham,MA,Massachusetts,1,,1024,209.1,25001,Barnstable,{'25001': 100},Barnstable,25001,False,0,America/New_York
2660,41.705459999999995,-70.15434,South Dennis,MA,Massachusetts,1,,6257,313.5,25001,Barnstable,{'25001': 100},Barnstable,25001,False,0,America/New_York
2663,41.90675,-69.99739,South Wellfleet,MA,Massachusetts,1,,94,47.3,25001,Barnstable,{'25001': 100},Barnstable,25001,False,0,America/New_York
2664,41.67465,-70.19465,South Yarmouth,MA,Massachusetts,1,,8850,521.6,25001,Barnstable,{'25001': 100},Barnstable,25001,False,0,America/New_York
2666,41.98943,-70.04569000000001,Truro,MA,Massachusetts,1,,493,25.1,25001,Barnstable,{'25001': 100},Barnstable,25001,False,0,America/New_York
2667,41.92791,-70.01815,Wellfleet,MA,Massachusetts,1,,3387,53.5,25001,Barnstable,{'25001': 100},Barnstable,25001,False,0,America/New_York
2668,41.71178,-70.35675,West Barnstable,MA,Massachusetts,1,,2723,83.3,25001,Barnstable,{'25001': 100},Barnstable,25001,False,0,America/New_York
2669,41.67100000000001,-69.9928,West Chatham,MA,Massachusetts,1,,111,117.7,25001,Barnstable,{'25001': 100},Barnstable,25001,False,0,America/New_York
2670,41.65987,-70.1716,West Dennis,MA,Massachusetts,1,,1202,242.0,25001,Barnstable,{'25001': 100},Barnstable,25001,False,0,America/New_York
2671,41.6721,-70.11095,West Harwich,MA,Massachusetts,1,,877,196.2,25001,Barnstable,{'25001': 100},Barnstable,25001,False,0,America/New_York
2672,41.63551,-70.31791,West Hyannisport,MA,Massachusetts,1,,281,140.6,25001,Barnstable,{'25001': 100},Barnstable,25001,False,0,America/New_York
2673,41.6573,-70.24665999999999,West Yarmouth,MA,Massachusetts,1,,8484,324.5,25001,Barnstable,{'25001': 100},Barnstable,25001,False,0,America/New_York
2675,41.70485,-70.23063,Yarmouth Port,MA,Massachusetts,1,,6616,281.3,25001,Barnstable,{'25001': 100},Barnstable,25001,False,0,America/New_York
2702,41.78452,-71.06116,Assonet,MA,Massachusetts,1,,4366,94.9,25005,Bristol,{'25005': 100},Bristol,25005,False,0,America/New_York
2703,41.93103,-71.29505999999998,Attleboro,MA,Massachusetts,1,,44548,628.4,25005,Bristol,{'25005': 100},Bristol,25005,False,0,America/New_York
2713,41.43437,-70.87573,Cuttyhunk,MA,Massachusetts,1,,40,4.0,25007,Dukes,{'25007': 100},Dukes,25007,False,0,America/New_York
2715,41.81747,-71.15058,Dighton,MA,Massachusetts,1,,3519,105.3,25005,Bristol,{'25005': 100},Bristol,25005,False,0,America/New_York
2717,41.75874,-70.97166,East Freetown,MA,Massachusetts,1,,4885,103.6,25005,Bristol,{'25005': 100},Bristol,25005,False,0,America/New_York
2718,41.86891,-71.01162,East Taunton,MA,Massachusetts,1,,6383,248.3,25005,Bristol,{'25005': 100},Bristol,25005,False,0,America/New_York
2719,41.63945,-70.87321,Fairhaven,MA,Massachusetts,1,,16026,494.9,25005,Bristol,{'25005': 100},Bristol,25005,False,0,America/New_York
2720,41.732859999999995,-71.11808,Fall River,MA,Massachusetts,1,,30699,1075.9,25005,Bristol,{'25005': 100},Bristol,25005,False,0,America/New_York
2721,41.67465,-71.14768000000002,Fall River,MA,Massachusetts,1,,26268,2487.1,25005,Bristol,{'25005': 100},Bristol,25005,False,0,America/New_York
2723,41.69271,-71.12968000000002,Fall River,MA,Massachusetts,1,,14279,3570.2,25005,Bristol,{'25005': 100},Bristol,25005,False,0,America/New_York
2724,41.68401,-71.17936,Fall River,MA,Massachusetts,1,,17686,3513.0,25005,Bristol,{'25005': 100},Bristol,25005,False,0,America/New_York
2725,41.71252,-71.18426,Somerset,MA,Massachusetts,1,,2421,428.0,25005,Bristol,{'25005': 100},Bristol,25005,False,0,America/New_York
2726,41.76072,-71.14446,Somerset,MA,Massachusetts,1,,15786,1085.0,25005,Bristol,{'25005': 100},Bristol,25005,False,0,America/New_York
2738,41.70912,-70.76355,Marion,MA,Massachusetts,1,,5100,134.5,25023,Plymouth,{'25023': 100},Plymouth,25023,False,0,America/New_York
2739,41.66869000000001,-70.81706,Mattapoisett,MA,Massachusetts,1,,6294,134.3,25023,Plymouth,{'25023': 100},Plymouth,25023,False,0,America/New_York
2740,41.63787,-70.93814,New Bedford,MA,Massachusetts,1,,43604,2926.0,25005,Bristol,{'25005': 100},Bristol,25005,False,0,America/New_York
2743,41.71385,-70.90123,Acushnet,MA,Massachusetts,1,,10483,215.9,25005,Bristol,{'25005': 100},Bristol,25005,False,0,America/New_York
2744,41.60799,-70.91269,New Bedford,MA,Massachusetts,1,,11036,3560.0,25005,Bristol,{'25005': 100},Bristol,25005,False,0,America/New_York
2745,41.69893,-70.94826,New Bedford,MA,Massachusetts,1,,24622,918.7,25005,Bristol,{'25005': 100},Bristol,25005,False,0,America/New_York
2746,41.6615,-70.94155,New Bedford,MA,Massachusetts,1,,15552,2799.5,25005,Bristol,{'25005': 100},Bristol,25005,False,0,America/New_York
2747,41.66783,-71.01626999999998,North Dartmouth,MA,Massachusetts,1,,23512,181.4,25005,Bristol,{'25005': 100},Bristol,25005,False,0,America/New_York
2748,41.5605,-70.97896999999998,South Dartmouth,MA,Massachusetts,1,,11313,196.4,25005,Bristol,{'25005': 100},Bristol,25005,False,0,America/New_York
2760,41.97006,-71.33585,North Attleboro,MA,Massachusetts,1,,27345,575.1,25005,Bristol,{'25005': 100},Bristol,25005,False,0,America/New_York
2762,42.01409,-71.33641999999998,Plainville,MA,Massachusetts,1,,9088,290.4,25021,Norfolk,{'25021': 100},Norfolk,25021,False,0,America/New_York
2763,41.96669,-71.30749,Attleboro Falls,MA,Massachusetts,1,,1771,843.8,25005,Bristol,{'25005': 100},Bristol,25005,False,0,America/New_York
2764,41.856629999999996,-71.16051999999998,North Dighton,MA,Massachusetts,1,,4238,145.3,25005,Bristol,{'25005': 100},Bristol,25005,False,0,America/New_York
2766,41.96402,-71.18418,Norton,MA,Massachusetts,1,,19634,264.0,25005,Bristol,{'25005': 100},Bristol,25005,False,0,America/New_York
2767,41.93707,-71.05109,Raynham,MA,Massachusetts,1,,14326,220.1,25005,Bristol,{'25005': 100},Bristol,25005,False,0,America/New_York
2769,41.84394,-71.24559,Rehoboth,MA,Massachusetts,1,,12082,95.5,25005,Bristol,{'25005': 100},Bristol,25005,False,0,America/New_York
2770,41.75849,-70.84084,Rochester,MA,Massachusetts,1,,5245,61.2,25023,Plymouth,{'25023': 100},Plymouth,25023,False,0,America/New_York
2771,41.83778,-71.31735,Seekonk,MA,Massachusetts,1,,15210,287.9,25005,Bristol,{'25005': 100},Bristol,25005,False,0,America/New_York
2777,41.75704,-71.21205,Swansea,MA,Massachusetts,1,,16276,270.0,25005,Bristol,{'25005': 100},Bristol,25005,False,0,America/New_York
2779,41.83491,-71.07544,Berkley,MA,Massachusetts,1,,6679,149.9,25005,Bristol,{'25005': 100},Bristol,25005,False,0,America/New_York
2780,41.90755,-71.11955999999998,Taunton,MA,Massachusetts,1,,50264,573.0,25005,Bristol,{'25005': 100},Bristol,25005,False,0,America/New_York
2790,41.5999,-71.08324,Westport,MA,Massachusetts,1,,15694,113.0,25005,Bristol,{'25005': 100},Bristol,25005,False,0,America/New_York
2791,41.52799,-71.07806,Westport Point,MA,Massachusetts,1,,331,90.1,25005,Bristol,{'25005': 100},Bristol,25005,False,0,America/New_York
2802,41.95195,-71.45534,Albion,RI,Rhode Island,1,,671,1552.1,44007,Providence,{'44007': 100},Providence,44007,False,0,America/New_York
2804,41.43188,-71.77235999999998,Ashaway,RI,Rhode Island,1,,2004,99.7,44009,Washington,{'44009': 100},Washington,44009,False,0,America/New_York
2806,41.74438,-71.31461,Barrington,RI,Rhode Island,1,,16192,766.3,44001,Bristol,{'44001': 100},Bristol,44001,False,0,America/New_York
2807,41.17762000000001,-71.57854,Block Island,RI,Rhode Island,1,,827,44.7,44009,Washington,{'44009': 100},Washington,44009,False,0,America/New_York
2808,41.408559999999994,-71.74866999999998,Bradford,RI,Rhode Island,1,,2565,116.4,44009,Washington,{'44009': 100},Washington,44009,False,0,America/New_York
2809,41.68271,-71.2694,Bristol,RI,Rhode Island,1,,22258,902.3,44001,Bristol,{'44001': 100},Bristol,44001,False,0,America/New_York
2812,41.4777,-71.65437,Carolina,RI,Rhode Island,1,,1208,87.0,44009,Washington,{'44009': 100},Washington,44009,False,0,America/New_York
2813,41.39728,-71.67017,Charlestown,RI,Rhode Island,1,,7780,82.9,44009,Washington,{'44009': 100},Washington,44009,False,0,America/New_York
2814,41.89877,-71.69752,Chepachet,RI,Rhode Island,1,,7673,64.6,44007,Providence,{'44007': 100},Providence,44007,False,0,America/New_York
2815,41.77305,-71.65833,Clayville,RI,Rhode Island,1,,208,25.7,44007,Providence,{'44007': 100},Providence,44007,False,0,America/New_York
2816,41.69086,-71.61976,Coventry,RI,Rhode Island,1,,32825,332.3,44003,Kent,"{'44003': 99.98, '44007': 0.02}",Kent|Providence,44003|44007,False,0,America/New_York
2817,41.62911,-71.66729000000002,West Greenwich,RI,Rhode Island,1,,6033,47.2,44003,Kent,{'44003': 100},Kent,44003,False,0,America/New_York
2818,41.6431,-71.49295,East Greenwich,RI,Rhode Island,1,,18190,319.7,44003,Kent,{'44003': 100},Kent,44003,False,0,America/New_York
2822,41.56728,-71.63266,Exeter,RI,Rhode Island,1,,6581,42.2,44009,Washington,{'44009': 100},Washington,44009,False,0,America/New_York
2825,41.78117,-71.72612,Foster,RI,Rhode Island,1,,5500,38.4,44007,Providence,{'44007': 100},Providence,44007,False,0,America/New_York
2826,41.97398,-71.63701999999998,Glendale,RI,Rhode Island,1,,501,122.3,44007,Providence,{'44007': 100},Providence,44007,False,0,America/New_York
2827,41.69785,-71.73955,Greene,RI,Rhode Island,1,,2060,39.7,44003,Kent,{'44003': 100},Kent,44003,False,0,America/New_York
2828,41.878009999999996,-71.55935,Greenville,RI,Rhode Island,1,,7863,623.4,44007,Providence,{'44007': 100},Providence,44007,False,0,America/New_York
2830,41.98212,-71.64989,Harrisville,RI,Rhode Island,1,,5935,119.5,44007,Providence,{'44007': 100},Providence,44007,False,0,America/New_York
2831,41.75264,-71.58910999999998,Hope,RI,Rhode Island,1,,3501,140.9,44007,Providence,"{'44003': 3.87, '44007': 96.13}",Providence|Kent,44007|44003,False,0,America/New_York
2832,41.508340000000004,-71.72596999999998,Hope Valley,RI,Rhode Island,1,,4320,79.6,44009,Washington,{'44009': 100},Washington,44009,False,0,America/New_York
2833,41.48737,-71.77825,Hopkinton,RI,Rhode Island,1,,1144,42.8,44009,Washington,{'44009': 100},Washington,44009,False,0,America/New_York
2835,41.51497,-71.3771,Jamestown,RI,Rhode Island,1,,5496,220.9,44005,Newport,{'44005': 100},Newport,44005,False,0,America/New_York
2836,41.45232,-71.62048,Kenyon,RI,Rhode Island,1,,187,170.8,44009,Washington,{'44009': 100},Washington,44009,False,0,America/New_York
2837,41.515229999999995,-71.16455,Little Compton,RI,Rhode Island,1,,3505,65.7,44005,Newport,{'44005': 100},Newport,44005,False,0,America/New_York
2838,41.96513,-71.47617,Manville,RI,Rhode Island,1,,3519,918.1,44007,Providence,{'44007': 100},Providence,44007,False,0,America/New_York
2839,41.94292,-71.64314,Mapleville,RI,Rhode Island,1,,2062,171.0,44007,Providence,{'44007': 100},Providence,44007,False,0,America/New_York
2840,41.47775,-71.32036,Newport,RI,Rhode Island,1,,23211,1247.6,44005,Newport,{'44005': 100},Newport,44005,False,0,America/New_York
2841,41.51334,-71.32381,Newport,RI,Rhode Island,1,,1632,1152.0,44005,Newport,{'44005': 100},Newport,44005,False,0,America/New_York
